country,city,latitude,longitude,temperature,humidity,wind_kph,precipitation,visibility,air_quality_pm25,condition,last_updated
Afghanistan,Kabul,34.52,69.18,28.8,19,11.5,0.0,10.0,7.9,Sunny,2023-08-29 14:00
Albania,Tirana,41.33,19.82,27.0,54,6.1,0.0,10.0,28.2,Partly cloudy,2023-08-29 11:30
Algeria,Algiers,36.76,3.05,28.0,30,13.0,0.0,10.0,6.4,Partly cloudy,2023-08-29 10:30
Andorra,Andorra La Vella,42.5,1.52,10.2,51,9.7,0.0,10.0,0.5,Sunny,2023-08-29 11:30
Angola,Luanda,-8.84,13.23,25.0,69,3.6,0.0,10.0,139.6,Partly cloudy,2023-08-29 10:30
Antigua and Barbuda,Saint John's,17.12,-61.85,29.0,79,15.1,0.3,10.0,0.8,Light rain,2023-08-29 05:30
Argentina,Buenos Aires,-34.59,-58.67,9.0,71,11.2,0.0,10.0,2.1,Clear,2023-08-29 06:30
Armenia,Yerevan,40.18,44.51,31.0,26,9.0,0.0,10.0,5.0,Partly cloudy,2023-08-29 13:30
Australia,Canberra,-35.28,149.22,13.0,62,15.1,0.0,10.0,4.0,Clear,2023-08-29 19:30
Austria,Vienna,48.2,16.37,16.0,82,19.1,0.0,10.0,13.1,Light rain,2023-08-29 11:30
Azerbaijan,Baku,40.4,49.88,31.0,36,22.0,0.0,10.0,5.6,Sunny,2023-08-29 13:30
Bahamas,Nassau,25.08,-77.35,29.8,80,14.4,0.0,10.0,1.4,Clear,2023-08-29 05:30
Bahrain,Manama,26.24,50.58,38.0,54,13.0,0.0,10.0,69.3,Sunny,2023-08-29 12:30
Bangladesh,Dhaka,23.72,90.41,34.0,52,5.4,0.0,10.0,84.8,Cloudy,2023-08-29 15:30
Barbados,Bridgetown,13.1,-59.62,27.0,89,25.9,0.4,10.0,1.6,Partly cloudy,2023-08-29 05:30
Belarus,Minsk,53.9,27.57,22.0,61,11.2,0.0,10.0,2.1,Sunny,2023-08-29 12:30
Belgium,Brussels,50.83,4.33,16.0,82,6.1,0.0,10.0,16.6,Partly cloudy,2023-08-29 11:30
Belize,Belmopan,17.25,-88.77,23.6,95,6.8,0.7,9.0,2.8,Patchy rain possible,2023-08-29 03:30
Benin,Porto-Novo,6.48,2.62,28.0,84,16.9,0.0,10.0,13.4,Partly cloudy,2023-08-29 10:30
Bhutan,Thimphu,27.48,89.6,17.1,75,8.6,1.3,9.0,7.3,Patchy rain possible,2023-08-29 15:30
Bolivia,Sucre,-19.04,-65.26,10.8,38,3.6,0.0,10.0,3.2,Clear,2023-08-29 05:30
Bosnia and Herzegovina,Sarajevo,43.85,18.38,23.0,47,29.9,0.0,10.0,8.4,Partly cloudy,2023-08-29 11:30
Botswana,Gaborone,-24.65,25.91,18.4,35,15.1,0.0,10.0,17.4,Sunny,2023-08-29 11:30
Brazil,Bras,-2.08,-58.17,23.8,54,5.0,0.0,10.0,2.4,Clear,2023-08-29 05:30
Brunei Darussalam,Bandar Seri Begawan,4.88,114.93,31.0,79,11.2,0.4,10.0,2.1,Partly cloudy,2023-08-29 17:30
Bulgaria,Sofia,42.68,23.32,28.0,40,15.1,0.1,10.0,9.2,Partly cloudy,2023-08-29 12:30
Burkina Faso,Ouagadougou,12.37,-1.52,28.0,79,6.8,0.0,10.0,18.4,Partly cloudy,2023-08-29 09:30
Burundi,Bujumbura,-3.38,29.36,28.9,34,16.9,0.0,10.0,7.2,Partly cloudy,2023-08-29 11:30
Madagascar,Ivory,-24.37,46.45,22.9,35,10.1,0.0,10.0,1.2,Sunny,2023-08-29 12:30
Cape Verde,Praia,14.93,-23.51,28.0,74,15.1,0.0,6.0,29.0,Partly cloudy,2023-08-29 08:30
Cambodia,Phnom Penh,11.55,104.92,30.0,75,11.2,0.0,8.0,2.0,Moderate or heavy rain with thunder,2023-08-29 16:30
Cameroon,Bafoussam,5.47,10.42,23.9,78,3.6,0.8,9.0,20.5,Patchy rain possible,2023-08-29 10:30
Canada,Ottawa,45.42,-75.7,11.0,100,6.8,0.0,24.0,3.7,Clear,2023-08-29 05:30
Central African Republic,Bangui,4.37,18.58,26.3,80,3.6,0.0,10.0,0.5,Partly cloudy,2023-08-29 10:30
Chad,N'djamena,12.11,15.05,32.0,67,19.1,0.0,7.0,9.5,Sunny,2023-08-29 10:30
Chile,Santiago,-33.45,-70.67,5.0,87,6.1,0.0,10.0,496.2,Clear,2023-08-29 05:30
China,Beijing,39.93,116.39,28.0,37,6.8,0.0,10.0,26.2,Sunny,2023-08-29 17:30
Bulgaria,Bogot,43.32,24.7,36.4,17,11.9,0.0,10.0,4.4,Sunny,2023-08-29 12:30
Comoros,Moroni,-11.7,43.24,24.0,83,24.1,3.0,10.0,6.9,Partly cloudy,2023-08-29 12:30
Congo,Brazzaville,-4.26,15.28,31.1,51,9.0,0.0,10.0,7.8,Partly cloudy,2023-08-29 10:30
Costa Rica,San Juan,9.97,-84.08,21.0,94,6.1,0.0,10.0,44.3,Clear,2023-08-29 03:30
Croatia,Zagreb,45.8,16.0,23.0,69,3.6,0.0,10.0,7.2,Partly cloudy,2023-08-29 11:30
Cuba,Havana,23.13,-82.36,26.0,100,15.1,0.0,9.0,2.6,Partly cloudy,2023-08-29 05:30
Cyprus,Nicosia,35.17,33.37,35.0,35,11.2,0.0,10.0,13.0,Partly cloudy,2023-08-29 12:30
Czech Republic,Prague,50.08,14.47,13.0,94,9.0,0.1,10.0,3.0,Overcast,2023-08-29 11:30
Democratic Republic of Congo,Kinshasa,-4.3,15.3,31.1,50,9.0,0.0,10.0,7.8,Partly cloudy,2023-08-29 10:30
Denmark,Copenhagen,55.67,12.58,17.0,72,6.8,0.0,10.0,1.2,Sunny,2023-08-29 11:30
Djibouti,Djibouti,11.6,43.15,42.0,29,15.1,0.0,8.0,9.2,Mist,2023-08-29 12:30
Dominica,Roseau,15.3,-61.4,28.2,79,19.8,0.6,10.0,1.1,Light rain shower,2023-08-29 05:30
Dominican Republic,Santo Domingo,18.47,-69.9,26.0,94,6.8,0.0,10.0,15.3,Partly cloudy,2023-08-29 05:30
Ecuador,Quito,-0.22,-78.5,8.9,62,6.8,0.0,10.0,17.5,Clear,2023-08-29 04:30
Egypt,Cairo,30.05,31.25,31.0,46,19.1,0.0,10.0,39.0,Partly cloudy,2023-08-29 12:30
El Salvador,San Salvador,13.71,-89.2,26.0,94,6.8,0.0,10.0,17.1,Light rain,2023-08-29 03:30
Equatorial Guinea,Malabo,3.75,8.78,25.9,81,8.6,2.0,10.0,2.7,Light rain shower,2023-08-29 10:30
Eritrea,Asmara,15.33,38.93,25.1,34,17.3,0.1,10.0,10.4,Patchy rain possible,2023-08-29 12:30
Estonia,Tallinn,59.43,24.73,19.0,73,16.9,0.0,10.0,3.1,Partly cloudy,2023-08-29 12:30
Swaziland,Mbabane,-26.32,31.13,20.0,49,3.6,0.0,10.0,16.3,Sunny,2023-08-29 11:30
Ethiopia,Addis Ababa,9.03,38.7,17.0,83,13.0,2.7,10.0,15.7,Partly cloudy,2023-08-29 12:30
Fiji Islands,Suva,-18.13,178.42,24.0,78,13.0,0.1,10.0,1.5,Partly cloudy,2023-08-29 21:30
Finland,Helsinki,60.18,24.93,20.0,64,19.1,0.0,10.0,4.0,Partly cloudy,2023-08-29 12:30
France,Paris,48.87,2.33,18.0,64,11.2,0.0,10.0,6.0,Partly cloudy,2023-08-29 11:30
Gabon,Libreville,0.38,9.45,27.0,74,8.3,0.2,10.0,6.8,Light rain shower,2023-08-29 10:30
Gambia,Banjul,13.45,-16.58,27.0,94,15.1,0.7,10.0,1.2,Partly cloudy,2023-08-29 09:30
Georgia,Tbilisi,41.73,44.79,30.0,43,13.0,0.0,10.0,4.5,Sunny,2023-08-29 13:30
Germany,Berlin,52.52,13.4,16.0,82,15.1,0.3,10.0,5.1,Light rain,2023-08-29 11:30
Ghana,Accra,5.55,-0.22,26.0,89,11.2,0.0,10.0,5.8,Overcast,2023-08-29 09:30
Greece,Athens,37.98,23.72,32.0,26,11.2,0.0,10.0,23.4,Partly cloudy,2023-08-29 12:30
Grenada,Saint George's,12.05,-61.75,26.0,94,20.2,0.4,10.0,1.4,Partly cloudy,2023-08-29 05:30
Guatemala,Guatemala City,14.62,-90.53,17.0,96,3.6,0.0,2.0,93.4,Mist,2023-08-29 03:30
Guinea,Conakry,9.51,-13.71,25.0,100,6.8,2.5,10.0,0.6,Partly cloudy,2023-08-29 09:30
Guinea-Bissau,Bissau,11.85,-15.58,28.0,84,11.2,0.5,9.0,1.4,Light rain,2023-08-29 09:30
Guyana,Georgetown,6.8,-58.17,24.0,100,3.6,1.8,5.0,0.8,Mist,2023-08-29 05:30
Haiti,Port-Au-Prince,18.54,-72.34,27.0,89,15.1,0.0,9.0,6.9,Clear,2023-08-29 05:30
Vatican City,Vatican City,41.9,12.45,21.0,88,3.6,0.9,4.0,3.4,Moderate rain,2023-08-29 11:30
Honduras,Tegucigalpa,14.1,-87.22,21.0,88,6.1,0.0,10.0,1.1,Partly cloudy,2023-08-29 03:30
Hungary,Budapest,47.5,19.08,20.0,88,11.2,0.1,10.0,13.9,Light rain shower,2023-08-29 11:30
Iceland,Hella,63.83,-20.4,11.0,82,6.8,0.0,10.0,0.6,Sunny,2023-08-29 09:30
India,New Delhi,28.6,77.2,34.0,50,6.8,0.0,5.0,33.2,Mist,2023-08-29 15:00
Indonesia,Jakarta,-6.21,106.85,31.0,63,25.9,0.0,8.0,107.0,Partly cloudy,2023-08-29 16:30
Iran,Tehran,35.73,51.33,33.0,15,15.1,0.0,10.0,24.1,Partly cloudy,2023-08-29 13:00
Iraq,Baghdad,33.34,44.39,37.0,24,11.2,0.0,10.0,22.1,Sunny,2023-08-29 12:30
Ireland,Dublin,53.33,-6.25,14.0,88,22.0,0.0,10.0,2.1,Partly cloudy,2023-08-29 10:30
Israel,Jerusalem,31.78,35.23,30.0,62,20.2,0.0,10.0,13.6,Partly cloudy,2023-08-29 12:30
Italy,Rome,41.9,12.48,21.0,88,3.6,0.9,4.0,3.4,Moderate rain,2023-08-29 11:30
Jamaica,Norman Gardens,17.97,-76.75,30.0,84,22.0,0.0,10.0,3.1,Partly cloudy,2023-08-29 04:30
Japan,Tokyo,35.69,139.69,32.0,59,15.1,0.0,10.0,6.6,Partly cloudy,2023-08-29 18:30
Jordan,Amman,31.95,35.93,27.0,51,19.1,0.0,6.0,15.2,Partly cloudy,2023-08-29 12:30
Kazakhstan,Astana,51.18,71.43,22.0,29,31.0,0.0,10.0,3.1,Partly cloudy,2023-08-29 15:30
Kenya,Nairobi,-1.28,36.82,21.0,43,16.9,0.0,10.0,8.5,Partly cloudy,2023-08-29 12:30
Kiribati,Tarawa,-0.88,169.53,28.9,77,16.6,0.2,10.0,0.5,Light rain shower,2023-08-29 21:30
Kuwait,Kuwait City,29.37,47.96,39.6,23,3.6,0.0,10.0,45.7,Sunny,2023-08-29 12:30
Kyrghyzstan,Bishkek,42.87,74.6,27.4,20,9.7,0.0,10.0,2.0,Sunny,2023-08-29 15:30
Indonesia,Laos,-8.18,114.32,27.9,60,12.2,0.0,10.0,11.7,Sunny,2023-08-29 16:30
Latvia,Riga,56.95,24.1,16.0,94,9.0,0.0,10.0,4.3,Light rain,2023-08-29 12:30
Lebanon,Beirut,33.87,35.51,30.0,62,24.1,0.0,6.0,15.8,Partly cloudy,2023-08-29 12:45
Lesotho,Maseru,-29.32,27.48,18.9,15,4.3,0.0,10.0,69.6,Sunny,2023-08-29 11:45
Liberia,Monrovia,6.31,-10.8,25.0,94,3.6,1.3,10.0,2.8,Partly cloudy,2023-08-29 09:45
Thailand,Nan,18.78,100.78,33.0,63,3.6,4.8,10.0,8.3,Partly cloudy,2023-08-29 16:45
Liechtenstein,Vaduz,47.13,9.52,12.0,100,6.8,0.2,10.0,4.3,Light rain,2023-08-29 11:45
Lithuania,Vilnius,54.68,25.32,17.0,94,13.0,0.1,10.0,3.6,Moderate or heavy rain with thunder,2023-08-29 12:30
Luxembourg,Luxembourg,49.61,6.13,16.0,77,11.2,0.1,10.0,4.9,Partly cloudy,2023-08-29 11:45
Madagascar,Antananarivo,-18.92,47.52,21.0,56,24.1,0.2,10.0,1.8,Partly cloudy,2023-08-29 12:45
Malawi,Lilongwe,-13.98,33.78,18.0,88,19.1,0.0,10.0,2.2,Partly cloudy,2023-08-29 11:45
Malaysia,Kuala Lumpur,3.17,101.7,27.0,89,3.6,1.4,9.0,126.8,Moderate or heavy rain with thunder,2023-08-29 17:45
Maldives,Farukolhufunadhoo,6.15,73.27,25.3,87,42.8,9.4,3.0,0.5,Torrential rain shower,2023-08-29 14:30
Mali,Bamako,12.65,-8.0,23.0,100,13.0,2.3,10.0,4.3,Light rain,2023-08-29 09:45
Malta,Valletta,35.9,14.51,28.0,42,20.2,0.0,10.0,3.3,Partly cloudy,2023-08-29 11:30
Marshall Islands,Majuro,7.1,171.38,29.0,75,11.2,0.0,24.0,1.0,Overcast,2023-08-29 21:45
Mauritania,Nouakchott,18.09,-15.98,28.6,70,19.8,0.0,10.0,15.9,Sunny,2023-08-29 09:45
Mauritius,Port Louis,-20.16,57.5,26.0,70,15.1,0.0,10.0,6.9,Partly cloudy,2023-08-29 13:30
Mexico,Mexico City,19.43,-99.13,16.0,77,11.2,0.0,16.0,15.5,Partly cloudy,2023-08-29 03:45
Micronesia,Palikir,6.92,158.15,26.0,100,6.1,0.3,23.0,0.5,Light rain,2023-08-29 20:45
Russia,Chi-Chi-Erh,51.7,94.45,36.5,12,20.5,0.0,10.0,4.6,Overcast,2023-08-29 16:45
Monaco,Monaco,43.73,7.42,22.0,73,20.2,0.0,10.0,0.8,Partly cloudy,2023-08-29 11:45
Mongolia,Ulaanbaatar,47.92,106.92,26.0,32,11.2,0.0,10.0,28.9,Partly cloudy,2023-08-29 17:30
Montenegro,Podgorica,42.44,19.26,25.0,65,3.6,0.3,10.0,11.9,Partly cloudy,2023-08-29 11:45
Morocco,Rabat,34.03,-6.84,24.0,78,11.2,0.0,5.0,8.0,Sunny,2023-08-29 10:30
Mozambique,Maputo,-25.97,32.59,21.0,64,16.9,0.1,10.0,8.6,Partly cloudy,2023-08-29 11:45
Myanmar,Pathein,16.78,94.73,30.0,68,16.6,0.0,10.0,4.0,Partly cloudy,2023-08-29 16:15
Namibia,Windhoek,-22.57,17.08,20.0,43,6.1,0.0,10.0,22.4,Sunny,2023-08-29 11:45
Turkey,Yaren,39.55,27.62,28.0,55,3.6,0.0,10.0,10.3,Sunny,2023-08-29 12:45
Nepal,Kathmandu,27.72,85.32,28.0,58,11.2,0.5,8.0,32.3,Partly cloudy,2023-08-29 15:30
Netherlands,Amsterdam,52.37,4.89,19.0,73,15.1,0.0,10.0,5.7,Partly cloudy,2023-08-29 11:30
New Zealand,Wellington,-41.3,174.78,9.0,81,19.1,0.0,10.0,0.5,Clear,2023-08-29 21:30
Nicaragua,Managua,12.15,-86.27,25.0,100,3.6,0.0,10.0,22.7,Partly cloudy,2023-08-29 03:45
Niger,Niamey,13.52,2.12,30.0,62,19.1,0.0,10.0,5.0,Sunny,2023-08-29 10:45
Nigeria,Abuja,9.18,7.18,28.0,74,11.2,0.0,10.0,8.8,Partly cloudy,2023-08-29 10:45
North Korea,Pyongyang,39.02,125.75,22.0,88,10.1,0.1,10.0,17.2,Patchy rain possible,2023-08-29 18:45
Macedonia,Skopje,42.0,21.43,30.0,43,3.6,0.0,10.0,25.2,Partly cloudy,2023-08-29 11:30
Norway,Oslo,59.92,10.75,12.0,94,29.9,0.0,10.0,5.3,Moderate rain,2023-08-29 11:30
Oman,Muscat,23.61,58.59,33.0,80,24.1,0.0,9.0,38.2,Sunny,2023-08-29 13:45
Pakistan,Islamabad,33.7,73.17,31.9,45,5.8,0.0,10.0,88.4,Sunny,2023-08-29 14:45
Palau,Adkip,7.36,134.51,29.0,84,19.1,0.0,14.0,1.9,Partly cloudy,2023-08-29 18:45
Bolivia,National,-11.18,-67.08,22.5,57,3.6,0.0,10.0,51.3,Clear,2023-08-29 05:45
Panama,Panama City,8.97,-79.53,27.0,89,6.1,0.6,9.0,5.9,Partly cloudy,2023-08-29 04:30
Papua New Guinea,Port Moresby,-9.46,147.19,24.4,80,28.4,0.0,10.0,5.9,Clear,2023-08-29 19:45
Paraguay,Carreria,-21.55,-58.12,22.8,40,4.7,0.0,10.0,5.2,Overcast,2023-08-29 05:45
Peru,Lima,-12.05,-77.05,16.2,86,10.8,0.0,10.0,13.2,Partly cloudy,2023-08-29 04:30
Philippines,Manila,14.6,120.98,27.0,89,20.2,0.7,10.0,1.2,Light rain,2023-08-29 17:45
Poland,Warsaw,52.25,21.0,22.0,83,6.8,0.0,10.0,1.9,Partly cloudy,2023-08-29 11:45
Portugal,Lisbon,38.72,-9.13,21.0,69,3.6,0.0,10.0,4.6,Partly cloudy,2023-08-29 10:30
Qatar,Doha,25.29,51.53,38.0,54,19.1,0.0,10.0,46.1,Sunny,2023-08-29 12:45
Romania,Bucharest,44.43,26.1,35.0,32,16.9,0.0,10.0,5.8,Sunny,2023-08-29 12:30
Russia,Moscow,55.75,37.62,16.0,68,15.1,0.0,10.0,4.5,Partly cloudy,2023-08-29 12:30
Rwanda,Kigali,-1.95,30.06,26.0,34,22.0,0.0,10.0,2.5,Partly cloudy,2023-08-29 11:45
Saint Kitts and Nevis,Basseterre,17.3,-62.72,28.0,84,16.9,0.0,10.0,1.2,Clear,2023-08-29 05:45
Saint Lucia,Castries,14.0,-61.0,27.0,89,25.9,0.4,10.0,2.3,Partly cloudy,2023-08-29 05:45
Saint Vincent and the Grenadines,Kingstown,13.13,-61.22,28.8,78,29.2,0.9,9.0,1.8,Patchy rain possible,2023-08-29 05:45
Samoa,Apia,-13.83,-171.73,26.0,84,20.2,0.6,10.0,3.3,Partly cloudy,2023-08-29 22:45
San Marino,San Marino,43.93,12.45,21.0,64,15.1,0.0,10.0,1.2,Partly cloudy,2023-08-29 11:45
Belgium,'S-Gravenwezel,51.27,4.55,17.0,77,6.8,0.0,10.0,5.5,Partly cloudy,2023-08-29 11:45
Saudi Arabia,Riyadh,24.64,46.77,42.0,6,9.0,0.0,10.0,59.0,Sunny,2023-08-29 12:30
Senegal,Dakar,14.67,-17.44,27.0,89,6.8,3.6,10.0,8.9,Partly cloudy,2023-08-29 09:45
Serbia,Belgrade,44.8,20.47,24.0,65,19.1,0.1,10.0,14.1,Partly cloudy,2023-08-29 11:30
Seychelles Islands,Victoria,-4.62,55.45,26.3,85,35.3,0.5,10.0,4.1,Light rain shower,2023-08-29 13:30
Sierra Leone,Freetown,8.49,-13.23,24.0,100,3.6,1.5,10.0,1.6,Partly cloudy,2023-08-29 09:45
Singapore,Singapore,1.29,103.86,31.0,59,11.2,0.4,10.0,23.6,Partly cloudy,2023-08-29 17:30
Slovakia,Bratislava,48.15,17.12,19.0,88,13.0,0.0,10.0,12.1,Light rain shower,2023-08-29 11:30
Slovenia,Ljubljana,46.06,14.51,16.0,100,11.2,0.8,4.0,3.0,Light rain shower,2023-08-29 11:30
Solomon Islands,Honiara,-9.43,159.95,27.0,79,6.8,0.1,10.0,1.3,Partly cloudy,2023-08-29 20:45
Somalia,Mogadishu,2.07,45.37,29.0,84,28.1,0.0,10.0,7.8,Partly cloudy,2023-08-29 12:45
South Africa,Pretoria,-25.75,28.19,18.0,30,6.8,0.0,10.0,56.3,Sunny,2023-08-29 11:45
South Korea,Seoul,37.57,127.0,23.0,94,6.8,0.0,10.0,4.9,Light rain,2023-08-29 18:30
Sudan,Juba,12.15,24.45,31.2,43,15.8,0.0,10.0,8.1,Sunny,2023-08-29 11:45
Spain,Madrid,40.4,-3.68,20.0,49,6.1,0.0,10.0,2.5,Sunny,2023-08-29 11:45
Sri Lanka,Colombo,6.93,79.85,31.0,66,29.9,0.1,10.0,1.5,Partly cloudy,2023-08-29 15:15
Sudan,Khartoum,15.59,32.53,30.4,49,29.2,0.0,10.0,13.0,Partly cloudy,2023-08-29 11:45
Suriname,Paramaribo,5.83,-55.17,25.0,94,3.6,0.0,10.0,1.0,Partly cloudy,2023-08-29 06:45
Sweden,Stockholm,59.33,18.05,18.0,64,16.9,0.0,10.0,2.8,Sunny,2023-08-29 11:45
Switzerland,Bern,46.92,7.47,14.0,77,3.6,0.0,10.0,4.1,Partly cloudy,2023-08-29 11:30
Syria,Damascus,33.5,36.3,32.0,30,19.1,0.0,10.0,6.9,Partly cloudy,2023-08-29 12:45
Tajikistan,Dushanbe,38.56,68.77,32.0,17,11.2,0.0,10.0,2.0,Sunny,2023-08-29 14:30
Tanzania,Dodoma,-6.18,35.75,23.0,53,24.1,0.0,10.0,1.4,Partly cloudy,2023-08-29 12:30
Thailand,Bangkok,13.75,100.52,33.0,56,11.2,0.1,10.0,10.0,Partly cloudy,2023-08-29 16:45
Indonesia,Murong Timor,-7.56,112.27,33.5,30,13.7,0.0,10.0,41.1,Sunny,2023-08-29 16:45
Bulgaria,Lom,43.81,23.24,31.3,31,7.2,0.0,10.0,7.5,Sunny,2023-08-29 12:45
Tonga,Nuku`Aloia,-21.13,-175.2,21.0,78,15.1,0.1,10.0,1.2,Partly cloudy,2023-08-29 22:45
Trinidad and Tobago,Port Of Spain,10.65,-61.52,26.0,89,3.6,0.1,10.0,2.1,Partly cloudy,2023-08-29 05:30
Tunisia,Tunis,36.8,10.18,29.0,40,24.1,0.0,10.0,2.4,Partly cloudy,2023-08-29 10:45
Turkey,Ankara,39.93,32.86,28.0,28,3.6,0.0,10.0,13.3,Sunny,2023-08-29 12:45
Turkmenistan,Ashgabat,37.95,58.38,35.0,19,19.1,0.0,10.0,19.0,Partly cloudy,2023-08-29 14:45
Tuvalu,Funafuti,-8.52,179.22,29.0,89,9.0,0.3,10.0,1.6,Partly cloudy,2023-08-29 21:45
Uganda,Kampala,0.32,32.57,25.0,69,24.1,1.5,10.0,4.0,Partly cloudy,2023-08-29 12:45
Ukraine,Lviv,49.83,24.0,29.4,41,12.6,0.0,10.0,13.3,Sunny,2023-08-29 12:30
United Arab Emirates,Abu Dhabi,24.47,54.37,45.0,10,11.2,0.0,10.0,82.6,Sunny,2023-08-29 13:45
United Kingdom,London,51.52,-0.11,18.0,68,13.0,0.0,10.0,4.0,Sunny,2023-08-29 10:45
United States of America,Washington Park,46.6,-120.49,23.3,45,15.1,0.0,16.0,9.6,Clear,2023-08-29 02:45
Uruguay,Montevideo,-34.86,-56.17,7.0,93,11.2,0.0,10.0,2.8,Clear,2023-08-29 06:30
Uzbekistan,Tashkent,41.32,69.25,31.0,14,15.1,0.0,10.0,7.1,Sunny,2023-08-29 14:30
Vanuatu,Port Vila,-17.73,168.32,22.0,100,19.1,2.6,10.0,4.8,Overcast,2023-08-29 20:45
Venezuela,Caracas,10.5,-66.92,25.0,79,11.2,0.5,10.0,25.6,Partly cloudy,2023-08-29 05:45
Vietnam,Hanoi,21.03,105.85,30.0,66,11.2,0.0,10.0,12.9,Sunny,2023-08-29 16:45
Yemen,Sanaa,15.35,44.21,25.3,31,6.5,0.2,10.0,17.5,Patchy light rain with thunder,2023-08-29 12:45
Zambia,Lusaka,-15.42,28.28,19.8,28,19.1,0.0,10.0,17.3,Sunny,2023-08-29 11:45
Zimbabwe,Harare,-17.82,31.04,19.0,25,16.9,0.0,10.0,17.4,Sunny,2023-08-29 11:45
Afghanistan,Kabul,34.52,69.18,21.3,54,3.6,0.0,10.0,31.7,Sunny,2023-08-30 07:30
Albania,Tirana,41.33,19.82,22.0,73,6.1,0.0,10.0,4.5,Partly cloudy,2023-08-30 05:00
Algeria,Algiers,36.76,3.05,19.0,73,3.6,0.0,10.0,5.3,Partly cloudy,2023-08-30 04:00
Andorra,Andorra La Vella,42.5,1.52,2.9,91,7.6,0.0,10.0,0.8,Partly cloudy,2023-08-30 04:45
Angola,Luanda,-8.84,13.23,21.0,94,11.2,0.0,8.0,8.5,Partly cloudy,2023-08-30 03:45
Antigua and Barbuda,Saint John's,17.12,-61.85,29.0,75,16.9,0.0,10.0,7.7,Partly cloudy,2023-08-29 22:45
Argentina,Buenos Aires,-34.59,-58.67,11.0,82,15.1,0.0,10.0,2.9,Clear,2023-08-29 23:45
Armenia,Yerevan,40.18,44.51,18.0,60,6.1,0.0,10.0,2.2,Sunny,2023-08-30 07:00
Australia,Canberra,-35.28,149.22,16.0,55,15.1,0.0,10.0,3.8,Partly cloudy,2023-08-30 13:00
Austria,Vienna,48.2,16.37,15.0,82,15.1,0.0,10.0,3.0,Light rain,2023-08-30 04:45
Azerbaijan,Baku,40.4,49.88,23.0,57,22.0,0.0,10.0,0.9,Sunny,2023-08-30 06:45
Bahamas,Nassau,25.08,-77.35,30.0,79,20.2,0.0,10.0,13.9,Moderate or heavy rain with thunder,2023-08-29 22:45
Bahrain,Manama,26.24,50.58,33.0,67,9.0,0.0,10.0,28.7,Sunny,2023-08-30 05:45
Bangladesh,Dhaka,23.72,90.41,30.6,61,3.6,0.0,10.0,153.9,Sunny,2023-08-30 08:45
Barbados,Bridgetown,13.1,-59.62,28.0,89,25.9,0.3,10.0,2.3,Partly cloudy,2023-08-29 23:00
Belarus,Minsk,53.9,27.57,20.0,88,6.8,0.0,10.0,8.3,Clear,2023-08-30 05:45
Belgium,Brussels,50.83,4.33,12.0,88,9.0,0.0,10.0,11.2,Partly cloudy,2023-08-30 05:00
Belize,Belmopan,17.25,-88.77,24.4,91,4.3,0.1,10.0,2.9,Patchy rain possible,2023-08-29 21:00
Benin,Porto-Novo,6.48,2.62,26.0,89,19.1,0.1,10.0,6.3,Partly cloudy,2023-08-30 04:00
Bhutan,Thimphu,27.48,89.6,18.3,65,5.4,0.0,10.0,14.1,Sunny,2023-08-30 09:00
Bolivia,Sucre,-19.04,-65.26,13.0,52,6.8,0.0,10.0,11.8,Clear,2023-08-29 23:00
Bosnia and Herzegovina,Sarajevo,43.85,18.38,16.0,88,3.6,3.5,10.0,1.7,Partly cloudy,2023-08-30 04:45
Botswana,Gaborone,-24.65,25.91,9.0,66,9.0,0.0,10.0,2.7,Clear,2023-08-30 05:00
Brazil,Bras,-2.08,-58.17,26.9,38,5.4,0.0,10.0,2.8,Clear,2023-08-29 23:00
Brunei Darussalam,Bandar Seri Begawan,4.88,114.93,32.0,75,13.0,0.0,10.0,2.3,Partly cloudy,2023-08-30 11:00
Bulgaria,Sofia,42.68,23.32,17.0,88,6.8,0.5,10.0,10.3,Light rain shower,2023-08-30 05:45
Burkina Faso,Ouagadougou,12.37,-1.52,24.6,81,17.6,0.0,10.0,5.0,Clear,2023-08-30 03:00
Burundi,Bujumbura,-3.38,29.36,22.5,57,3.6,0.0,10.0,28.7,Clear,2023-08-30 05:00
Madagascar,Ivory,-24.37,46.45,13.2,83,4.7,0.0,10.0,2.4,Clear,2023-08-30 06:00
Cape Verde,Praia,14.93,-23.51,26.0,89,11.2,0.6,10.0,17.5,Partly cloudy,2023-08-30 02:00
Cambodia,Phnom Penh,11.55,104.92,32.0,67,13.0,0.0,10.0,1.8,Partly cloudy,2023-08-30 10:00
Cameroon,Bafoussam,5.47,10.42,16.9,97,4.7,0.0,2.0,14.7,Mist,2023-08-30 04:00
Canada,Ottawa,45.42,-75.7,20.0,88,9.0,0.0,24.0,2.7,Partly cloudy,2023-08-29 22:45
Central African Republic,Bangui,4.37,18.58,23.0,89,3.6,0.0,6.0,0.6,Partly cloudy,2023-08-30 04:00
Chad,N'djamena,12.11,15.05,24.0,89,16.9,0.0,7.0,8.5,Partly cloudy,2023-08-30 04:00
Chile,Santiago,-33.45,-70.67,13.0,58,16.9,0.0,10.0,537.3,Clear,2023-08-29 22:45
China,Beijing,39.93,116.39,29.0,43,3.6,0.0,10.0,150.9,Sunny,2023-08-30 11:00
Bulgaria,Bogot,43.32,24.7,18.5,89,5.8,0.3,10.0,7.9,Patchy light rain with thunder,2023-08-30 06:00
Comoros,Moroni,-11.7,43.24,23.3,82,24.1,0.2,10.0,4.6,Patchy rain possible,2023-08-30 06:00
Congo,Brazzaville,-4.26,15.28,24.0,78,6.8,0.0,8.0,38.4,Clear,2023-08-30 04:00
Costa Rica,San Juan,9.97,-84.08,23.0,94,6.8,0.0,0.5,37.4,Fog,2023-08-29 21:00
Croatia,Zagreb,45.8,16.0,16.0,88,6.8,0.0,10.0,2.6,Partly cloudy,2023-08-30 04:45
Cuba,Havana,23.13,-82.36,27.0,100,15.1,0.0,8.0,5.3,Partly cloudy,2023-08-29 23:00
Cyprus,Nicosia,35.17,33.37,22.0,73,6.8,0.0,10.0,20.8,Partly cloudy,2023-08-30 06:00
Czech Republic,Prague,50.08,14.47,13.0,94,11.2,0.1,10.0,4.6,Overcast,2023-08-30 04:45
Democratic Republic of Congo,Kinshasa,-4.3,15.3,24.0,78,6.8,0.0,8.0,38.4,Clear,2023-08-30 04:00
Denmark,Copenhagen,55.67,12.58,14.0,82,6.1,0.0,10.0,3.8,Partly cloudy,2023-08-30 04:45
Djibouti,Djibouti,11.6,43.15,33.0,53,11.2,0.2,10.0,9.1,Partly cloudy,2023-08-30 06:00
Dominica,Roseau,15.3,-61.4,28.3,79,19.8,1.0,10.0,2.4,Light rain shower,2023-08-29 23:00
Dominican Republic,Santo Domingo,18.47,-69.9,27.0,94,3.6,0.0,10.0,20.5,Partly cloudy,2023-08-29 23:00
Ecuador,Quito,-0.22,-78.5,11.5,61,6.8,0.0,10.0,32.0,Clear,2023-08-29 22:00
Egypt,Cairo,30.05,31.25,26.0,70,6.1,0.0,6.0,26.9,Clear,2023-08-30 05:45
El Salvador,San Salvador,13.71,-89.2,27.0,94,3.6,0.0,10.0,12.6,Partly cloudy,2023-08-29 20:45
Equatorial Guinea,Malabo,3.75,8.78,24.1,91,10.8,3.3,7.0,1.7,Moderate or heavy rain shower,2023-08-30 04:00
Eritrea,Asmara,15.33,38.93,18.2,60,3.6,0.0,10.0,25.2,Clear,2023-08-30 05:45
Estonia,Tallinn,59.43,24.73,14.0,94,11.2,0.1,10.0,3.3,Partly cloudy,2023-08-30 05:45
Swaziland,Mbabane,-26.32,31.13,7.6,87,5.8,0.0,10.0,10.7,Clear,2023-08-30 05:00
Ethiopia,Addis Ababa,9.03,38.7,14.0,100,15.1,0.0,7.0,12.8,Mist,2023-08-30 06:00
Fiji Islands,Suva,-18.13,178.42,26.0,70,25.9,0.0,10.0,3.3,Partly cloudy,2023-08-30 14:45
Finland,Helsinki,60.18,24.93,12.0,100,9.0,0.0,10.0,7.8,Fog,2023-08-30 06:00
France,Paris,48.87,2.33,14.0,88,3.6,0.0,10.0,9.7,Overcast,2023-08-30 04:45
Gabon,Libreville,0.38,9.45,25.0,94,13.0,0.0,10.0,4.9,Partly cloudy,2023-08-30 04:00
Gambia,Banjul,13.45,-16.58,24.0,89,11.2,0.6,10.0,1.1,Partly cloudy,2023-08-30 03:00
Georgia,Tbilisi,41.73,44.79,20.0,83,6.1,0.1,10.0,3.5,Sunny,2023-08-30 06:45
Germany,Berlin,52.52,13.4,14.0,94,9.0,0.0,10.0,3.9,Clear,2023-08-30 04:45
Ghana,Accra,5.55,-0.22,26.0,89,16.9,0.0,10.0,6.1,Partly cloudy,2023-08-30 03:00
Greece,Athens,37.98,23.72,26.0,48,9.0,0.0,10.0,27.2,Partly cloudy,2023-08-30 06:00
Grenada,Saint George's,12.05,-61.75,27.0,89,9.0,0.0,10.0,1.8,Partly cloudy,2023-08-29 23:00
Guatemala,Guatemala City,14.62,-90.53,18.2,97,6.8,1.1,10.0,36.5,Light drizzle,2023-08-29 20:45
Guinea,Conakry,9.51,-13.71,25.0,94,3.6,7.7,10.0,0.8,Partly cloudy,2023-08-30 03:00
Guinea-Bissau,Bissau,11.85,-15.58,24.8,89,15.8,1.0,10.0,1.0,Light rain shower,2023-08-30 03:00
Guyana,Georgetown,6.8,-58.17,26.0,94,3.6,0.1,10.0,1.6,Partly cloudy,2023-08-29 23:00
Haiti,Port-Au-Prince,18.54,-72.34,30.0,70,28.1,0.0,9.0,8.1,Clear,2023-08-29 23:00
Vatican City,Vatican City,41.9,12.45,17.0,88,9.0,0.0,10.0,5.4,Light rain,2023-08-30 05:00
Honduras,Tegucigalpa,14.1,-87.22,25.0,74,3.6,0.8,10.0,9.4,Partly cloudy,2023-08-29 21:00
Hungary,Budapest,47.5,19.08,16.0,100,6.1,0.6,10.0,13.5,Clear,2023-08-30 05:00
Iceland,Hella,63.83,-20.4,10.0,91,18.7,0.2,10.0,1.3,Light rain shower,2023-08-30 03:00
India,New Delhi,28.6,77.2,29.0,66,11.2,0.0,3.5,15.4,Mist,2023-08-30 08:30
Indonesia,Jakarta,-6.21,106.85,30.0,62,3.6,0.0,5.0,243.3,Partly cloudy,2023-08-30 09:45
Iran,Tehran,35.73,51.33,22.0,57,19.1,0.0,10.0,14.8,Partly cloudy,2023-08-30 06:30
Iraq,Baghdad,33.34,44.39,28.0,35,4.0,0.0,10.0,12.6,Sunny,2023-08-30 05:45
Ireland,Dublin,53.33,-6.25,11.0,94,20.2,0.0,10.0,2.9,Partly cloudy,2023-08-30 03:45
Israel,Jerusalem,31.78,35.23,25.0,79,11.2,0.0,10.0,15.4,Partly cloudy,2023-08-30 05:45
Italy,Rome,41.9,12.48,17.0,88,9.0,0.0,10.0,5.4,Light rain,2023-08-30 05:00
Jamaica,Norman Gardens,17.97,-76.75,31.0,75,29.9,0.0,10.0,11.1,Partly cloudy,2023-08-29 22:00
Japan,Tokyo,35.69,139.69,34.0,53,11.2,0.0,10.0,4.8,Partly cloudy,2023-08-30 12:00
Jordan,Amman,31.95,35.93,21.0,69,3.6,0.0,7.0,19.2,Clear,2023-08-30 06:00
Kazakhstan,Astana,51.18,71.43,16.0,77,22.0,0.0,10.0,4.7,Light rain,2023-08-30 09:00
Kenya,Nairobi,-1.28,36.82,16.0,82,19.1,0.0,10.0,8.7,Partly cloudy,2023-08-30 05:45
Kiribati,Tarawa,-0.88,169.53,28.5,76,10.1,1.4,10.0,0.7,Light rain shower,2023-08-30 15:00
Kuwait,Kuwait City,29.37,47.96,33.2,30,12.2,0.0,10.0,25.8,Sunny,2023-08-30 06:00
Kyrghyzstan,Bishkek,42.87,74.6,23.0,21,3.6,0.0,10.0,5.8,Sunny,2023-08-30 09:00
Indonesia,Laos,-8.18,114.32,27.5,65,7.9,0.0,10.0,20.4,Sunny,2023-08-30 10:00
Latvia,Riga,56.95,24.1,16.0,88,6.8,0.1,10.0,2.9,Clear,2023-08-30 06:00
Lebanon,Beirut,33.87,35.51,28.0,62,6.8,0.0,8.0,13.1,Partly cloudy,2023-08-30 05:45
Lesotho,Maseru,-29.32,27.48,8.0,30,5.8,0.0,10.0,64.7,Clear,2023-08-30 05:00
Liberia,Monrovia,6.31,-10.8,23.3,96,6.8,17.7,5.0,1.5,Heavy rain,2023-08-30 03:00
Thailand,Nan,18.78,100.78,26.0,94,3.6,1.8,10.0,4.1,Partly cloudy,2023-08-30 10:00
Liechtenstein,Vaduz,47.13,9.52,12.0,100,3.6,0.0,10.0,5.5,Overcast,2023-08-30 05:00
Lithuania,Vilnius,54.68,25.32,22.0,73,15.1,0.0,10.0,7.6,Partly cloudy,2023-08-30 05:45
Luxembourg,Luxembourg,49.61,6.13,11.0,100,3.6,0.0,10.0,6.1,Partly cloudy,2023-08-30 05:00
Madagascar,Antananarivo,-18.92,47.52,14.0,77,20.2,0.0,10.0,2.1,Partly cloudy,2023-08-30 06:00
Malawi,Lilongwe,-13.98,33.78,12.3,83,12.2,0.0,10.0,4.4,Clear,2023-08-30 05:00
Malaysia,Kuala Lumpur,3.17,101.7,28.0,79,3.6,0.0,10.0,51.1,Partly cloudy,2023-08-30 11:00
Maldives,Farukolhufunadhoo,6.15,73.27,27.7,72,17.6,0.0,10.0,1.0,Partly cloudy,2023-08-30 08:00
Mali,Bamako,12.65,-8.0,23.0,100,3.6,0.0,10.0,42.1,Partly cloudy,2023-08-30 03:00
Malta,Valletta,35.9,14.51,23.0,69,11.2,0.0,10.0,3.2,Clear,2023-08-30 04:45
Marshall Islands,Majuro,7.1,171.38,31.0,71,22.0,0.1,24.0,1.8,Overcast,2023-08-30 15:00
Mauritania,Nouakchott,18.09,-15.98,27.8,78,17.6,3.7,7.0,14.9,Moderate or heavy rain shower,2023-08-30 03:00
Mauritius,Port Louis,-20.16,57.5,22.0,78,13.0,0.0,10.0,5.8,Overcast,2023-08-30 07:00
Mexico,Mexico City,19.43,-99.13,21.0,49,19.1,0.0,16.0,6.6,Partly cloudy,2023-08-29 21:00
Micronesia,Palikir,6.92,158.15,28.0,89,11.2,0.1,24.0,0.5,Light rain,2023-08-30 14:00
Russia,Chi-Chi-Erh,51.7,94.45,21.6,63,15.1,0.0,10.0,1.7,Partly cloudy,2023-08-30 10:00
Monaco,Monaco,43.73,7.42,20.0,68,22.0,0.2,10.0,2.6,Partly cloudy,2023-08-30 05:00
Mongolia,Ulaanbaatar,47.92,106.92,18.0,60,3.6,0.0,10.0,5.5,Sunny,2023-08-30 11:00
Montenegro,Podgorica,42.44,19.26,18.0,94,13.0,2.4,10.0,3.0,Moderate rain,2023-08-30 05:00
Morocco,Rabat,34.03,-6.84,21.0,100,9.0,0.0,5.0,10.0,Partly cloudy,2023-08-30 04:00
Mozambique,Maputo,-25.97,32.59,17.0,88,6.8,0.1,10.0,26.5,Partly cloudy,2023-08-30 05:00
Myanmar,Pathein,16.78,94.73,29.2,73,8.6,0.3,10.0,21.3,Light rain shower,2023-08-30 09:30
Namibia,Windhoek,-22.57,17.08,16.0,48,19.1,0.0,10.0,15.5,Clear,2023-08-30 05:00
Turkey,Yaren,39.55,27.62,18.0,83,3.6,0.0,10.0,25.0,Clear,2023-08-30 06:00
Nepal,Kathmandu,27.72,85.32,23.0,83,3.6,0.1,6.0,77.4,Partly cloudy,2023-08-30 08:30
Netherlands,Amsterdam,52.37,4.89,15.0,82,13.0,0.0,10.0,6.1,Partly cloudy,2023-08-30 05:00
New Zealand,Wellington,-41.3,174.78,13.0,72,33.1,0.1,10.0,1.2,Partly cloudy,2023-08-30 15:00
Nicaragua,Managua,12.15,-86.27,27.0,100,3.6,0.0,10.0,13.2,Partly cloudy,2023-08-29 20:45
Niger,Niamey,13.52,2.12,29.0,75,19.1,0.0,10.0,4.8,Clear,2023-08-30 04:00
Nigeria,Abuja,9.18,7.18,23.0,94,11.2,1.8,10.0,13.5,Patchy light rain with thunder,2023-08-30 04:00
North Korea,Pyongyang,39.02,125.75,24.9,69,7.9,0.1,10.0,9.4,Patchy rain possible,2023-08-30 12:00
Macedonia,Skopje,42.0,21.43,16.0,88,3.6,0.0,10.0,22.2,Partly cloudy,2023-08-30 04:45
Norway,Oslo,59.92,10.75,13.0,94,13.0,0.0,0.0,2.4,Partly cloudy,2023-08-30 04:45
Oman,Muscat,23.61,58.59,30.0,89,6.8,0.0,7.0,44.3,Sunny,2023-08-30 07:00
Pakistan,Islamabad,33.7,73.17,25.7,63,7.6,0.0,10.0,46.3,Sunny,2023-08-30 07:45
Palau,Adkip,7.36,134.51,31.0,71,15.1,0.0,21.0,0.8,Partly cloudy,2023-08-30 12:00
Bolivia,National,-11.18,-67.08,29.0,45,3.6,0.0,10.0,19.1,Clear,2023-08-29 23:00
Panama,Panama City,8.97,-79.53,29.0,84,6.8,0.0,10.0,8.6,Partly cloudy,2023-08-29 22:00
Papua New Guinea,Port Moresby,-9.46,147.19,30.0,55,19.1,0.0,10.0,3.0,Mist,2023-08-30 13:00
Paraguay,Carreria,-21.55,-58.12,22.8,58,6.5,0.0,10.0,12.0,Partly cloudy,2023-08-29 23:00
Peru,Lima,-12.05,-77.05,17.2,81,16.6,0.0,10.0,12.6,Partly cloudy,2023-08-29 22:00
Philippines,Manila,14.6,120.98,31.0,75,25.9,28.7,10.0,2.2,Partly cloudy,2023-08-30 11:00
Poland,Warsaw,52.25,21.0,18.0,94,13.0,0.0,9.0,19.1,Partly cloudy,2023-08-30 05:00
Portugal,Lisbon,38.72,-9.13,19.0,78,11.2,0.0,10.0,3.6,Partly cloudy,2023-08-30 04:00
Qatar,Doha,25.29,51.53,34.0,75,15.1,0.0,10.0,35.7,Sunny,2023-08-30 06:00
Romania,Bucharest,44.43,26.1,22.0,65,6.8,0.0,10.0,12.4,Partly cloudy,2023-08-30 06:00
Russia,Moscow,55.75,37.62,14.0,88,11.2,0.0,9.0,16.4,Overcast,2023-08-30 05:45
Rwanda,Kigali,-1.95,30.06,18.0,60,9.0,0.0,10.0,31.5,Partly cloudy,2023-08-30 05:00
Saint Kitts and Nevis,Basseterre,17.3,-62.72,29.0,84,20.2,0.0,10.0,3.2,Clear,2023-08-29 23:00
Saint Lucia,Castries,14.0,-61.0,28.0,84,9.0,1.0,10.0,2.7,Partly cloudy,2023-08-29 23:00
Saint Vincent and the Grenadines,Kingstown,13.13,-61.22,28.9,75,31.0,2.0,9.0,2.5,Patchy rain possible,2023-08-29 23:00
Samoa,Apia,-13.83,-171.73,30.0,75,9.0,0.1,10.0,3.0,Partly cloudy,2023-08-30 16:00
San Marino,San Marino,43.93,12.45,18.0,73,9.0,0.1,10.0,2.6,Partly cloudy,2023-08-30 05:00
Belgium,'S-Gravenwezel,51.27,4.55,13.0,82,6.8,0.0,10.0,9.8,Partly cloudy,2023-08-30 04:45
Saudi Arabia,Riyadh,24.64,46.77,30.0,33,11.2,0.0,10.0,71.6,Sunny,2023-08-30 05:45
Senegal,Dakar,14.67,-17.44,27.8,80,27.7,0.2,10.0,4.3,Light rain shower,2023-08-30 03:00
Serbia,Belgrade,44.8,20.47,18.0,88,6.1,0.0,10.0,19.2,Clear,2023-08-30 05:00
Seychelles Islands,Victoria,-4.62,55.45,26.0,79,19.1,0.2,10.0,6.2,Partly cloudy,2023-08-30 07:00
Sierra Leone,Freetown,8.49,-13.23,23.4,96,13.3,19.6,5.0,1.2,Heavy rain,2023-08-30 03:00
Singapore,Singapore,1.29,103.86,29.0,79,6.1,0.9,10.0,10.5,Partly cloudy,2023-08-30 10:45
Slovakia,Bratislava,48.15,17.12,15.0,88,24.1,0.0,10.0,2.6,Partly cloudy,2023-08-30 05:00
Slovenia,Ljubljana,46.06,14.51,14.0,94,3.6,0.0,10.0,2.3,Overcast,2023-08-30 05:00
Solomon Islands,Honiara,-9.43,159.95,27.7,77,4.3,1.5,10.0,1.0,Light rain shower,2023-08-30 14:00
Somalia,Mogadishu,2.07,45.37,24.1,84,27.4,0.4,10.0,10.4,Light rain shower,2023-08-30 06:00
South Africa,Pretoria,-25.75,28.19,9.0,76,11.2,0.0,10.0,9.4,Clear,2023-08-30 04:45
South Korea,Seoul,37.57,127.0,25.0,79,6.1,0.2,10.0,65.2,Partly cloudy,2023-08-30 12:00
Sudan,Juba,12.15,24.45,24.0,76,13.7,0.2,9.0,8.9,Patchy rain possible,2023-08-30 05:00
Spain,Madrid,40.4,-3.68,18.0,45,6.8,0.0,10.0,1.4,Clear,2023-08-30 05:00
Sri Lanka,Colombo,6.93,79.85,26.0,94,11.2,4.1,9.0,2.4,Partly cloudy,2023-08-30 08:30
Sudan,Khartoum,15.59,32.53,26.2,70,48.2,0.0,10.0,10.7,Partly cloudy,2023-08-30 05:00
Suriname,Paramaribo,5.83,-55.17,27.0,89,6.8,0.0,10.0,2.0,Partly cloudy,2023-08-30 00:00
Sweden,Stockholm,59.33,18.05,14.0,94,3.6,0.4,10.0,5.7,Light rain,2023-08-30 05:00
Switzerland,Bern,46.92,7.47,10.0,100,6.8,0.0,10.0,5.9,Overcast,2023-08-30 04:45
Syria,Damascus,33.5,36.3,20.0,88,29.9,0.0,10.0,16.6,Clear,2023-08-30 06:00
Tajikistan,Dushanbe,38.56,68.77,20.0,56,3.6,0.0,9.0,1.6,Sunny,2023-08-30 07:45
Tanzania,Dodoma,-6.18,35.75,18.0,68,15.1,0.0,10.0,3.3,Partly cloudy,2023-08-30 06:00
Thailand,Bangkok,13.75,100.52,31.0,71,6.8,0.0,10.0,16.0,Partly cloudy,2023-08-30 10:00
Indonesia,Murong Timor,-7.56,112.27,30.1,49,3.6,0.0,10.0,22.7,Sunny,2023-08-30 10:00
Bulgaria,Lom,43.81,23.24,17.8,92,5.8,0.3,10.0,5.7,Patchy light rain with thunder,2023-08-30 06:00
Tonga,Nuku`Aloia,-21.13,-175.2,26.0,65,28.1,0.1,10.0,2.0,Partly cloudy,2023-08-30 16:00
Trinidad and Tobago,Port Of Spain,10.65,-61.52,25.0,94,3.6,0.0,10.0,0.7,Partly cloudy,2023-08-29 23:00
Tunisia,Tunis,36.8,10.18,22.0,78,6.1,0.0,10.0,5.2,Partly cloudy,2023-08-30 04:00
Turkey,Ankara,39.93,32.86,18.0,56,3.6,0.0,10.0,13.0,Clear,2023-08-30 06:00
Turkmenistan,Ashgabat,37.95,58.38,24.0,57,19.1,0.0,10.0,9.0,Light rain,2023-08-30 08:00
Tuvalu,Funafuti,-8.52,179.22,28.7,77,22.3,0.1,10.0,1.7,Patchy rain possible,2023-08-30 15:00
Uganda,Kampala,0.32,32.57,21.0,83,6.1,0.0,10.0,33.7,Partly cloudy,2023-08-30 06:00
Ukraine,Lviv,49.83,24.0,17.3,95,3.6,0.9,10.0,4.1,Light rain shower,2023-08-30 05:45
United Arab Emirates,Abu Dhabi,24.47,54.37,32.0,46,6.8,0.0,10.0,32.9,Sunny,2023-08-30 07:00
United Kingdom,London,51.52,-0.11,11.0,94,9.0,0.0,10.0,3.4,Partly cloudy,2023-08-30 04:00
United States of America,Washington Park,46.6,-120.49,22.2,40,11.2,0.0,16.0,0.6,Overcast,2023-08-29 20:00
Uruguay,Montevideo,-34.86,-56.17,9.0,100,11.2,0.0,7.0,3.3,Clear,2023-08-30 00:00
Uzbekistan,Tashkent,41.32,69.25,22.0,41,4.0,0.0,10.0,6.3,Partly cloudy,2023-08-30 08:00
Vanuatu,Port Vila,-17.73,168.32,24.0,89,20.2,3.0,1.0,2.7,Heavy rain,2023-08-30 14:00
Venezuela,Caracas,10.5,-66.92,31.0,79,9.0,0.0,10.0,8.5,Partly cloudy,2023-08-29 23:00
Vietnam,Hanoi,21.03,105.85,31.0,55,15.1,0.0,10.0,35.0,Sunny,2023-08-30 10:00
Yemen,Sanaa,15.35,44.21,18.8,40,4.0,0.0,10.0,26.9,Partly cloudy,2023-08-30 06:00
Zambia,Lusaka,-15.42,28.28,12.5,67,17.3,0.0,10.0,7.3,Clear,2023-08-30 05:00
Zimbabwe,Harare,-17.82,31.04,8.1,80,13.7,0.0,10.0,6.6,Clear,2023-08-30 05:00
Afghanistan,Kabul,34.52,69.18,18.1,40,3.6,0.0,10.0,7.7,Clear,2023-08-31 04:15
Albania,Tirana,41.33,19.82,20.0,100,3.6,4.5,10.0,4.2,Patchy light rain with thunder,2023-08-31 01:45
Algeria,Algiers,36.76,3.05,23.0,78,4.0,0.0,10.0,1.9,Partly cloudy,2023-08-31 00:45
Andorra,Andorra La Vella,42.5,1.52,5.1,95,3.6,0.0,2.0,1.0,Mist,2023-08-31 01:45
Angola,Luanda,-8.84,13.23,22.0,88,6.8,0.1,8.0,8.9,Partly cloudy,2023-08-31 00:45
Antigua and Barbuda,Saint John's,17.12,-61.85,29.0,79,15.1,0.1,10.0,4.5,Overcast,2023-08-30 19:45
Argentina,Buenos Aires,-34.59,-58.67,16.0,51,3.6,0.0,10.0,10.8,Clear,2023-08-30 20:45
Armenia,Yerevan,40.18,44.51,21.0,46,9.0,0.0,10.0,1.6,Clear,2023-08-31 03:45
Australia,Canberra,-35.28,149.22,8.0,100,6.8,0.0,10.0,1.1,Partly cloudy,2023-08-31 09:45
Austria,Vienna,48.2,16.37,17.0,63,13.0,0.0,10.0,2.4,Clear,2023-08-31 01:45
Azerbaijan,Baku,40.4,49.88,22.5,57,12.6,0.0,10.0,1.9,Clear,2023-08-31 03:45
Bahamas,Nassau,25.08,-77.35,31.0,75,13.0,0.0,10.0,2.5,Partly cloudy,2023-08-30 19:45
Bahrain,Manama,26.24,50.58,34.0,71,13.0,0.0,10.0,40.8,Clear,2023-08-31 02:45
Bangladesh,Dhaka,23.72,90.41,29.6,70,4.0,0.0,10.0,82.6,Partly cloudy,2023-08-31 05:45
Barbados,Bridgetown,13.1,-59.62,28.0,89,24.1,0.0,10.0,5.8,Partly cloudy,2023-08-30 19:45
Belarus,Minsk,53.9,27.57,18.0,100,15.1,2.4,10.0,7.0,Partly cloudy,2023-08-31 02:45
Belgium,Brussels,50.83,4.33,11.0,94,13.0,0.0,10.0,5.9,Clear,2023-08-31 01:45
Belize,Belmopan,17.25,-88.77,29.0,89,6.1,0.1,10.0,1.6,Partly cloudy,2023-08-30 17:45
Benin,Porto-Novo,6.48,2.62,26.0,89,19.1,2.2,10.0,10.9,Partly cloudy,2023-08-31 00:45
Bhutan,Thimphu,27.48,89.6,10.9,97,3.6,0.0,2.0,10.0,Mist,2023-08-31 05:45
Bolivia,Sucre,-19.04,-65.26,19.5,34,9.4,0.0,10.0,4.7,Clear,2023-08-30 19:45
Bosnia and Herzegovina,Sarajevo,43.85,18.38,13.0,100,3.6,0.0,10.0,1.4,Clear,2023-08-31 01:45
Botswana,Gaborone,-24.65,25.91,10.0,58,15.1,0.0,10.0,26.5,Clear,2023-08-31 01:45
Brazil,Bras,-2.08,-58.17,32.3,30,4.7,0.0,10.0,2.0,Clear,2023-08-30 19:45
Brunei Darussalam,Bandar Seri Begawan,4.88,114.93,26.0,94,6.8,0.0,10.0,1.9,Partly cloudy,2023-08-31 07:45
Bulgaria,Sofia,42.68,23.32,16.0,77,3.6,0.0,10.0,6.5,Partly cloudy,2023-08-31 02:45
Burkina Faso,Ouagadougou,12.37,-1.52,24.1,86,17.6,1.1,9.0,43.6,Patchy rain possible,2023-08-30 23:45
Burundi,Bujumbura,-3.38,29.36,22.6,55,3.6,0.0,10.0,43.5,Clear,2023-08-31 01:45
Madagascar,Ivory,-24.37,46.45,15.8,72,7.6,0.0,10.0,1.1,Clear,2023-08-31 02:45
Cape Verde,Praia,14.93,-23.51,27.0,89,15.1,0.0,10.0,9.8,Partly cloudy,2023-08-30 22:45
Cambodia,Phnom Penh,11.55,104.92,28.0,84,3.6,0.0,10.0,2.8,Partly cloudy,2023-08-31 06:45
Cameroon,Bafoussam,5.47,10.42,17.1,97,5.4,2.8,7.0,4.5,Moderate or heavy rain shower,2023-08-31 00:45
Canada,Ottawa,45.42,-75.7,16.0,77,28.1,0.0,24.0,0.5,Partly cloudy,2023-08-30 19:45
Central African Republic,Bangui,4.37,18.58,25.0,89,3.6,0.3,10.0,7.6,Clear,2023-08-31 00:45
Chad,N'djamena,12.11,15.05,27.0,89,6.1,0.1,10.0,20.4,Clear,2023-08-31 00:45
Chile,Santiago,-33.45,-70.67,14.0,63,13.0,0.0,10.0,180.3,Clear,2023-08-30 19:45
China,Beijing,39.93,116.39,21.0,94,6.8,0.2,10.0,142.2,Sunny,2023-08-31 07:45
Bulgaria,Bogot,43.32,24.7,20.2,69,4.3,0.0,10.0,9.8,Clear,2023-08-31 02:45
Comoros,Moroni,-11.7,43.24,20.8,71,11.9,0.0,10.0,2.5,Clear,2023-08-31 02:45
Congo,Brazzaville,-4.26,15.28,27.1,48,10.8,0.0,10.0,17.6,Clear,2023-08-31 00:45
Costa Rica,San Juan,9.97,-84.08,25.0,83,9.0,0.3,10.0,20.7,Partly cloudy,2023-08-30 17:45
Croatia,Zagreb,45.8,16.0,17.0,88,9.0,0.0,10.0,4.1,Light rain,2023-08-31 01:45
Cuba,Havana,23.13,-82.36,31.0,71,16.9,0.0,9.0,5.4,Partly cloudy,2023-08-30 19:45
Cyprus,Nicosia,35.17,33.37,25.0,83,3.6,0.0,10.0,26.9,Clear,2023-08-31 02:45
Czech Republic,Prague,50.08,14.47,14.0,88,15.1,0.0,10.0,6.1,Partly cloudy,2023-08-31 01:45
Democratic Republic of Congo,Kinshasa,-4.3,15.3,26.6,50,10.1,0.0,10.0,17.6,Clear,2023-08-31 00:45
Denmark,Copenhagen,55.67,12.58,14.0,88,4.0,0.0,10.0,5.2,Clear,2023-08-31 01:45
Djibouti,Djibouti,11.6,43.15,32.5,55,13.0,0.0,10.0,13.8,Clear,2023-08-31 02:45
Dominica,Roseau,15.3,-61.4,26.0,100,4.0,0.1,10.0,4.3,Partly cloudy,2023-08-30 19:45
Dominican Republic,Santo Domingo,18.47,-69.9,29.0,84,9.0,0.0,10.0,10.4,Partly cloudy,2023-08-30 19:45
Ecuador,Quito,-0.22,-78.5,17.5,55,8.3,0.1,10.0,31.7,Patchy rain possible,2023-08-30 18:45
Egypt,Cairo,30.05,31.25,28.0,62,9.0,0.0,10.0,36.5,Clear,2023-08-31 02:45
El Salvador,San Salvador,13.71,-89.2,30.0,79,6.8,0.7,10.0,18.7,Partly cloudy,2023-08-30 17:45
Equatorial Guinea,Malabo,3.75,8.78,24.6,87,14.4,0.0,10.0,1.0,Partly cloudy,2023-08-31 00:45
Eritrea,Asmara,15.33,38.93,17.8,65,6.5,0.1,10.0,32.5,Patchy rain possible,2023-08-31 02:45
Estonia,Tallinn,59.43,24.73,18.0,100,6.8,0.0,10.0,7.9,Light rain shower,2023-08-31 02:45
Swaziland,Mbabane,-26.32,31.13,10.5,77,5.0,0.0,10.0,23.6,Clear,2023-08-31 01:45
Ethiopia,Addis Ababa,9.03,38.7,13.0,100,9.0,0.1,10.0,161.0,Moderate rain,2023-08-31 02:45
Fiji Islands,Suva,-18.13,178.42,26.0,79,20.2,0.1,10.0,4.1,Partly cloudy,2023-08-31 11:45
Finland,Helsinki,60.18,24.93,18.0,100,6.8,0.0,7.0,6.9,Mist,2023-08-31 02:45
France,Paris,48.87,2.33,14.0,72,3.6,0.0,10.0,7.0,Overcast,2023-08-31 01:45
Gabon,Libreville,0.38,9.45,25.0,89,15.1,0.2,10.0,7.1,Partly cloudy,2023-08-31 00:45
Gambia,Banjul,13.45,-16.58,25.0,100,3.6,1.0,10.0,1.2,Partly cloudy,2023-08-30 23:45
Georgia,Tbilisi,41.73,44.79,19.0,83,3.6,0.0,10.0,2.9,Clear,2023-08-31 03:45
Germany,Berlin,52.52,13.4,14.0,88,6.8,0.3,10.0,7.0,Clear,2023-08-31 01:45
Ghana,Accra,5.55,-0.22,26.0,89,15.1,0.5,10.0,10.2,Overcast,2023-08-30 23:45
Greece,Athens,37.98,23.72,26.0,42,3.6,0.0,10.0,8.3,Clear,2023-08-31 02:45
Grenada,Saint George's,12.05,-61.75,29.0,84,20.2,0.1,10.0,2.5,Partly cloudy,2023-08-30 19:45
Guatemala,Guatemala City,14.62,-90.53,25.0,61,11.2,1.0,10.0,133.9,Partly cloudy,2023-08-30 17:45
Guinea,Conakry,9.51,-13.71,27.0,89,3.6,0.0,10.0,1.5,Partly cloudy,2023-08-30 23:45
Guinea-Bissau,Bissau,11.85,-15.58,25.0,94,3.6,0.2,6.0,2.4,Partly cloudy,2023-08-30 23:45
Guyana,Georgetown,6.8,-58.17,28.0,84,6.8,0.0,10.0,1.4,Partly cloudy,2023-08-30 19:45
Haiti,Port-Au-Prince,18.54,-72.34,27.7,63,3.6,0.0,10.0,4.6,Overcast,2023-08-30 19:45
Vatican City,Vatican City,41.9,12.45,20.0,73,9.0,0.1,10.0,14.1,Partly cloudy,2023-08-31 01:45
Honduras,Tegucigalpa,14.1,-87.22,29.0,55,6.1,1.5,10.0,15.8,Patchy light rain with thunder,2023-08-30 17:45
Hungary,Budapest,47.5,19.08,15.0,94,6.8,0.8,10.0,23.7,Clear,2023-08-31 01:45
Iceland,Hella,63.83,-20.4,10.2,88,19.1,0.0,10.0,0.5,Overcast,2023-08-30 23:45
India,New Delhi,28.6,77.2,29.0,70,3.6,0.0,3.5,47.4,Mist,2023-08-31 05:15
Indonesia,Jakarta,-6.21,106.85,24.0,94,6.1,0.0,4.0,347.0,Mist,2023-08-31 06:45
Iran,Tehran,35.73,51.33,23.0,47,19.1,0.0,8.0,10.0,Partly cloudy,2023-08-31 03:15
Iraq,Baghdad,33.34,44.39,31.0,29,4.0,0.0,10.0,17.7,Clear,2023-08-31 02:45
Ireland,Dublin,53.33,-6.25,13.0,82,6.1,0.0,10.0,2.2,Light rain,2023-08-31 00:45
Israel,Jerusalem,31.78,35.23,25.0,83,3.6,0.0,10.0,19.4,Clear,2023-08-31 02:45
Italy,Rome,41.9,12.48,20.0,73,9.0,0.0,10.0,14.1,Partly cloudy,2023-08-31 01:45
Jamaica,Norman Gardens,17.97,-76.75,32.0,67,31.0,0.0,10.0,4.0,Partly cloudy,2023-08-30 18:45
Japan,Tokyo,35.69,139.69,30.0,66,13.0,0.0,10.0,13.3,Partly cloudy,2023-08-31 08:45
Jordan,Amman,31.95,35.93,24.0,36,3.6,0.0,6.0,15.4,Clear,2023-08-31 02:45
Kazakhstan,Astana,51.18,71.43,8.0,76,25.9,0.0,10.0,1.0,Clear,2023-08-31 05:45
Kenya,Nairobi,-1.28,36.82,17.0,77,6.8,0.0,10.0,6.5,Partly cloudy,2023-08-31 02:45
Kiribati,Tarawa,-0.88,169.53,29.1,73,15.5,0.2,9.0,1.3,Patchy rain possible,2023-08-31 11:45
Kuwait,Kuwait City,29.37,47.96,34.7,35,19.1,0.0,10.0,26.2,Clear,2023-08-31 02:45
Kyrghyzstan,Bishkek,42.87,74.6,15.5,72,9.4,0.0,10.0,4.4,Overcast,2023-08-31 05:45
Indonesia,Laos,-8.18,114.32,20.6,93,4.3,0.0,10.0,19.8,Partly cloudy,2023-08-31 06:45
Latvia,Riga,56.95,24.1,19.0,94,6.8,0.0,10.0,5.1,Overcast,2023-08-31 02:45
Lebanon,Beirut,33.87,35.51,27.0,79,6.8,0.0,6.0,20.6,Partly cloudy,2023-08-31 02:45
Lesotho,Maseru,-29.32,27.48,10.6,33,3.6,0.0,10.0,55.2,Clear,2023-08-31 01:45
Liberia,Monrovia,6.31,-10.8,26.0,89,3.6,0.3,10.0,2.2,Partly cloudy,2023-08-30 23:45
Thailand,Nan,18.78,100.78,25.0,100,4.0,0.2,10.0,3.0,Partly cloudy,2023-08-31 06:45
Liechtenstein,Vaduz,47.13,9.52,16.0,68,3.6,0.5,10.0,2.8,Partly cloudy,2023-08-31 01:45
Lithuania,Vilnius,54.68,25.32,19.0,94,16.9,0.0,10.0,8.4,Overcast,2023-08-31 02:45
Luxembourg,Luxembourg,49.61,6.13,10.0,94,13.0,0.0,10.0,4.3,Clear,2023-08-31 01:45
Madagascar,Antananarivo,-18.92,47.52,13.0,77,20.2,0.0,10.0,2.6,Partly cloudy,2023-08-31 02:45
Malawi,Lilongwe,-13.98,33.78,13.0,72,11.2,0.0,10.0,7.7,Clear,2023-08-31 01:45
Malaysia,Kuala Lumpur,3.17,101.7,26.0,89,3.6,0.4,9.0,88.8,Partly cloudy,2023-08-31 07:45
Maldives,Farukolhufunadhoo,6.15,73.27,26.0,85,32.4,2.0,10.0,1.1,Light rain shower,2023-08-31 04:45
Mali,Bamako,12.65,-8.0,26.0,89,4.0,0.0,10.0,11.7,Partly cloudy,2023-08-30 23:45
Malta,Valletta,35.9,14.51,24.0,83,13.0,0.0,10.0,5.6,Partly cloudy,2023-08-31 01:45
Marshall Islands,Majuro,7.1,171.38,31.0,71,9.0,0.3,24.0,0.7,Partly cloudy,2023-08-31 11:45
Mauritania,Nouakchott,18.09,-15.98,26.3,84,30.6,0.2,10.0,2.0,Light rain shower,2023-08-30 23:45
Mauritius,Port Louis,-20.16,57.5,21.0,69,15.1,0.0,10.0,3.2,Partly cloudy,2023-08-31 03:45
Mexico,Mexico City,19.43,-99.13,24.0,39,37.1,0.0,13.0,19.6,Light rain,2023-08-30 17:45
Micronesia,Palikir,6.92,158.15,29.0,79,6.1,0.4,24.0,0.5,Overcast,2023-08-31 10:45
Russia,Chi-Chi-Erh,51.7,94.45,19.7,59,6.5,0.0,10.0,3.9,Partly cloudy,2023-08-31 06:45
Monaco,Monaco,43.73,7.42,20.0,73,13.0,0.0,10.0,7.5,Clear,2023-08-31 01:45
Mongolia,Ulaanbaatar,47.92,106.92,10.0,82,3.6,0.0,10.0,4.7,Partly cloudy,2023-08-31 07:45
Montenegro,Podgorica,42.44,19.26,19.0,94,11.2,3.1,10.0,5.2,Partly cloudy,2023-08-31 01:45
Morocco,Rabat,34.03,-6.84,18.0,94,3.6,0.0,5.0,9.0,Partly cloudy,2023-08-31 00:45
Mozambique,Maputo,-25.97,32.59,17.0,88,6.1,0.0,10.0,3.7,Clear,2023-08-31 01:45
Myanmar,Pathein,16.78,94.73,25.5,93,5.8,0.0,10.0,12.9,Partly cloudy,2023-08-31 06:15
Namibia,Windhoek,-22.57,17.08,16.0,42,6.8,0.0,10.0,26.3,Clear,2023-08-31 01:45
Turkey,Yaren,39.55,27.62,23.0,61,6.8,0.0,10.0,35.7,Clear,2023-08-31 02:45
Nepal,Kathmandu,27.72,85.32,22.0,94,3.6,0.5,7.0,79.2,Partly cloudy,2023-08-31 05:30
Netherlands,Amsterdam,52.37,4.89,13.0,88,15.1,0.4,10.0,3.3,Moderate rain,2023-08-31 01:45
New Zealand,Wellington,-41.3,174.78,14.0,72,37.1,0.0,10.0,0.5,Partly cloudy,2023-08-31 11:45
Nicaragua,Managua,12.15,-86.27,34.0,56,11.2,0.0,10.0,11.6,Partly cloudy,2023-08-30 17:45
Niger,Niamey,13.52,2.12,24.0,83,15.1,0.0,10.0,6.9,Clear,2023-08-31 00:45
Nigeria,Abuja,9.18,7.18,24.0,94,4.0,1.3,10.0,8.4,Partly cloudy,2023-08-31 00:45
North Korea,Pyongyang,39.02,125.75,20.1,87,3.6,0.0,10.0,36.2,Partly cloudy,2023-08-31 08:45
Macedonia,Skopje,42.0,21.43,19.0,68,6.1,0.0,10.0,2.5,Partly cloudy,2023-08-31 01:45
Norway,Oslo,59.92,10.75,13.0,94,22.0,0.0,10.0,12.3,Partly cloudy,2023-08-31 01:45
Oman,Muscat,23.61,58.59,29.0,94,3.6,0.0,8.0,32.4,Partly cloudy,2023-08-31 03:45
Pakistan,Islamabad,33.7,73.17,25.7,55,10.1,0.0,10.0,51.5,Clear,2023-08-31 04:45
Palau,Adkip,7.36,134.51,29.0,79,9.0,0.0,21.0,1.1,Partly cloudy,2023-08-31 08:45
Bolivia,National,-11.18,-67.08,31.1,40,3.6,0.0,10.0,20.0,Clear,2023-08-30 19:45
Panama,Panama City,8.97,-79.53,30.0,84,28.1,0.9,10.0,11.9,Partly cloudy,2023-08-30 18:45
Papua New Guinea,Port Moresby,-9.46,147.19,27.0,62,28.1,0.0,10.0,2.8,Mist,2023-08-31 09:45
Paraguay,Carreria,-21.55,-58.12,29.2,37,4.0,0.0,10.0,10.4,Clear,2023-08-30 19:45
Peru,Lima,-12.05,-77.05,18.7,79,17.6,0.0,10.0,14.0,Partly cloudy,2023-08-30 18:45
Philippines,Manila,14.6,120.98,25.0,100,3.6,1.6,6.0,3.0,Light rain,2023-08-31 07:45
Poland,Warsaw,52.25,21.0,16.0,94,11.2,0.0,10.0,4.1,Partly cloudy,2023-08-31 01:45
Portugal,Lisbon,38.72,-9.13,19.0,78,22.0,0.0,10.0,3.3,Partly cloudy,2023-08-31 00:45
Qatar,Doha,25.29,51.53,34.0,67,6.8,0.0,10.0,40.5,Clear,2023-08-31 02:45
Romania,Bucharest,44.43,26.1,20.0,94,6.1,0.4,10.0,12.8,Partly cloudy,2023-08-31 02:45
Russia,Moscow,55.75,37.62,13.0,88,6.8,0.0,10.0,27.7,Clear,2023-08-31 02:45
Rwanda,Kigali,-1.95,30.06,20.0,56,6.8,0.0,10.0,38.2,Partly cloudy,2023-08-31 01:45
Saint Kitts and Nevis,Basseterre,17.3,-62.72,29.0,79,19.1,0.1,10.0,4.4,Partly cloudy,2023-08-30 19:45
Saint Lucia,Castries,14.0,-61.0,28.0,84,13.0,0.0,10.0,4.4,Partly cloudy,2023-08-30 19:45
Saint Vincent and the Grenadines,Kingstown,13.13,-61.22,28.9,78,25.6,0.1,10.0,2.0,Patchy rain possible,2023-08-30 19:45
Samoa,Apia,-13.83,-171.73,29.0,75,11.2,0.0,10.0,3.7,Partly cloudy,2023-08-31 12:45
San Marino,San Marino,43.93,12.45,17.0,83,3.6,0.0,10.0,2.9,Clear,2023-08-31 01:45
Belgium,'S-Gravenwezel,51.27,4.55,11.0,94,9.0,1.9,10.0,7.0,Clear,2023-08-31 01:45
Saudi Arabia,Riyadh,24.64,46.77,31.0,22,6.1,0.0,10.0,42.2,Clear,2023-08-31 02:45
Senegal,Dakar,14.67,-17.44,27.0,89,25.9,1.0,10.0,1.1,Partly cloudy,2023-08-30 23:45
Serbia,Belgrade,44.8,20.47,16.0,100,11.2,0.4,10.0,5.7,Clear,2023-08-31 01:45
Seychelles Islands,Victoria,-4.62,55.45,26.0,79,16.9,0.0,10.0,10.0,Partly cloudy,2023-08-31 03:45
Sierra Leone,Freetown,8.49,-13.23,27.0,84,6.8,0.0,10.0,3.4,Partly cloudy,2023-08-30 23:45
Singapore,Singapore,1.29,103.86,28.0,79,6.8,0.0,10.0,10.9,Partly cloudy,2023-08-31 07:45
Slovakia,Bratislava,48.15,17.12,15.0,88,6.8,0.0,10.0,3.5,Clear,2023-08-31 01:45
Slovenia,Ljubljana,46.06,14.51,14.0,100,6.1,6.0,10.0,5.9,Partly cloudy,2023-08-31 01:45
Solomon Islands,Honiara,-9.43,159.95,28.0,84,3.6,0.7,10.0,1.5,Partly cloudy,2023-08-31 10:45
Somalia,Mogadishu,2.07,45.37,24.2,84,20.9,0.0,10.0,7.1,Partly cloudy,2023-08-31 02:45
South Africa,Pretoria,-25.75,28.19,13.0,51,9.0,0.0,10.0,40.8,Clear,2023-08-31 01:45
South Korea,Seoul,37.57,127.0,22.0,94,4.0,0.1,7.0,62.2,Partly cloudy,2023-08-31 08:45
Sudan,Juba,12.15,24.45,20.9,89,10.1,1.0,10.0,3.7,Light rain shower,2023-08-31 01:45
Spain,Madrid,40.4,-3.68,21.0,40,3.6,0.0,10.0,0.9,Clear,2023-08-31 01:45
Sri Lanka,Colombo,6.93,79.85,26.0,94,15.1,0.0,9.0,2.4,Moderate rain,2023-08-31 05:15
Sudan,Khartoum,15.59,32.53,28.7,50,27.4,0.0,10.0,18.4,Partly cloudy,2023-08-31 01:45
Suriname,Paramaribo,5.83,-55.17,29.0,79,15.1,0.1,10.0,1.2,Patchy light rain with thunder,2023-08-30 20:45
Sweden,Stockholm,59.33,18.05,11.0,100,6.8,0.0,10.0,5.7,Clear,2023-08-31 01:45
Switzerland,Bern,46.92,7.47,13.0,88,3.6,0.0,10.0,6.4,Overcast,2023-08-31 01:45
Syria,Damascus,33.5,36.3,23.0,61,16.9,0.0,10.0,15.3,Clear,2023-08-31 02:45
Tajikistan,Dushanbe,38.56,68.77,24.0,44,11.2,0.0,10.0,5.1,Partly cloudy,2023-08-31 04:45
Tanzania,Dodoma,-6.18,35.75,18.9,61,14.8,0.0,10.0,2.0,Clear,2023-08-31 02:45
Thailand,Bangkok,13.75,100.52,27.0,94,6.1,0.1,7.0,21.9,Partly cloudy,2023-08-31 06:45
Indonesia,Murong Timor,-7.56,112.27,20.8,88,9.4,0.0,10.0,17.6,Sunny,2023-08-31 06:45
Bulgaria,Lom,43.81,23.24,22.8,42,7.9,0.0,10.0,10.1,Partly cloudy,2023-08-31 02:45
Tonga,Nuku`Aloia,-21.13,-175.2,26.0,65,25.9,0.0,10.0,2.6,Partly cloudy,2023-08-31 12:45
Trinidad and Tobago,Port Of Spain,10.65,-61.52,29.0,79,6.8,0.0,10.0,0.6,Overcast,2023-08-30 19:45
Tunisia,Tunis,36.8,10.18,24.0,78,3.6,0.5,10.0,4.9,Partly cloudy,2023-08-31 00:45
Turkey,Ankara,39.93,32.86,21.0,40,3.6,0.0,10.0,25.2,Clear,2023-08-31 02:45
Turkmenistan,Ashgabat,37.95,58.38,19.0,56,4.0,0.0,10.0,11.2,Clear,2023-08-31 04:45
Tuvalu,Funafuti,-8.52,179.22,33.0,80,11.2,0.1,10.0,2.3,Partly cloudy,2023-08-31 11:45
Uganda,Kampala,0.32,32.57,20.0,94,6.8,0.0,10.0,30.0,Partly cloudy,2023-08-31 02:45
Ukraine,Lviv,49.83,24.0,15.8,95,9.7,9.7,6.0,7.5,Heavy rain at times,2023-08-31 02:45
United Arab Emirates,Abu Dhabi,24.47,54.37,33.0,63,3.6,0.0,10.0,55.2,Clear,2023-08-31 03:45
United Kingdom,London,51.52,-0.11,13.0,77,3.6,0.0,10.0,3.0,Overcast,2023-08-31 00:45
United States of America,Washington Park,46.6,-120.49,26.7,28,24.1,0.0,16.0,0.5,Sunny,2023-08-30 16:45
Uruguay,Montevideo,-34.86,-56.17,15.0,72,6.1,0.0,10.0,10.0,Clear,2023-08-30 20:45
Uzbekistan,Tashkent,41.32,69.25,19.0,83,6.8,0.1,10.0,5.0,Partly cloudy,2023-08-31 04:45
Vanuatu,Port Vila,-17.73,168.32,28.0,79,9.0,1.3,10.0,1.2,Partly cloudy,2023-08-31 10:45
Venezuela,Caracas,10.5,-66.92,30.0,62,4.0,0.1,10.0,13.3,Partly cloudy,2023-08-30 19:45
Vietnam,Hanoi,21.03,105.85,25.0,89,6.1,0.0,10.0,81.5,Sunny,2023-08-31 06:45
Yemen,Sanaa,15.35,44.21,17.8,53,6.1,0.0,9.0,36.9,Thundery outbreaks possible,2023-08-31 02:45
Zambia,Lusaka,-15.42,28.28,15.1,42,9.4,0.0,10.0,11.6,Clear,2023-08-31 01:45
Zimbabwe,Harare,-17.82,31.04,11.2,64,11.2,0.0,10.0,14.3,Clear,2023-08-31 01:45
Afghanistan,Kabul,34.52,69.18,19.2,49,3.6,0.0,10.0,20.9,Clear,2023-09-01 04:15
Albania,Tirana,41.33,19.82,17.0,88,6.1,0.0,10.0,4.4,Clear,2023-09-01 01:30
Algeria,Algiers,36.76,3.05,22.0,78,6.8,0.0,10.0,3.6,Partly cloudy,2023-09-01 00:45
Andorra,Andorra La Vella,42.5,1.52,8.1,88,3.6,0.0,10.0,2.0,Clear,2023-09-01 01:45
Angola,Luanda,-8.84,13.23,21.0,94,3.6,0.0,10.0,7.3,Partly cloudy,2023-09-01 00:45
Antigua and Barbuda,Saint John's,17.12,-61.85,29.0,75,13.0,0.0,10.0,3.5,Partly cloudy,2023-08-31 19:45
Argentina,Buenos Aires,-34.59,-58.67,12.0,62,13.0,0.0,10.0,1.9,Clear,2023-08-31 20:30
Armenia,Yerevan,40.18,44.51,24.0,36,9.0,0.0,10.0,3.2,Clear,2023-09-01 03:45
Australia,Canberra,-35.28,149.22,11.0,50,24.1,0.0,10.0,2.2,Sunny,2023-09-01 09:45
Austria,Vienna,48.2,16.37,16.0,77,6.8,0.1,10.0,3.6,Clear,2023-09-01 01:45
Azerbaijan,Baku,40.4,49.88,23.0,73,6.8,0.0,10.0,6.9,Partly cloudy,2023-09-01 03:45
Bahamas,Nassau,25.08,-77.35,31.0,79,11.2,0.0,10.0,3.3,Partly cloudy,2023-08-31 19:30
Bahrain,Manama,26.24,50.58,34.0,60,20.2,0.0,10.0,27.7,Clear,2023-09-01 02:45
Bangladesh,Dhaka,23.72,90.41,28.2,82,11.2,0.1,10.0,88.1,Patchy rain possible,2023-09-01 05:45
Barbados,Bridgetown,13.1,-59.62,28.0,79,20.2,0.0,10.0,2.7,Partly cloudy,2023-08-31 19:45
Belarus,Minsk,53.9,27.57,13.0,100,6.8,0.0,7.0,3.0,Partly cloudy,2023-09-01 02:45
Belgium,Brussels,50.83,4.33,14.0,94,6.8,0.9,10.0,2.9,Partly cloudy,2023-09-01 01:45
Belize,Belmopan,17.25,-88.77,30.0,79,6.1,0.3,10.0,2.3,Partly cloudy,2023-08-31 17:45
Benin,Porto-Novo,6.48,2.62,26.0,89,9.0,0.1,10.0,8.8,Partly cloudy,2023-09-01 00:45
Bhutan,Thimphu,27.48,89.6,12.3,96,3.6,0.0,10.0,14.8,Cloudy,2023-09-01 05:45
Bolivia,Sucre,-19.04,-65.26,10.8,82,3.6,5.6,8.0,3.1,Moderate rain at times,2023-08-31 19:45
Bosnia and Herzegovina,Sarajevo,43.85,18.38,16.0,100,6.1,0.0,7.0,7.9,Partly cloudy,2023-09-01 01:30
Botswana,Gaborone,-24.65,25.91,12.0,47,9.0,0.0,10.0,11.1,Clear,2023-09-01 01:45
Brazil,Bras,-2.08,-58.17,32.6,33,4.0,0.0,10.0,2.1,Clear,2023-08-31 19:45
Brunei Darussalam,Bandar Seri Begawan,4.88,114.93,28.0,94,6.8,0.2,10.0,6.0,Partly cloudy,2023-09-01 07:45
Bulgaria,Sofia,42.68,23.32,13.0,94,3.6,0.0,10.0,2.9,Partly cloudy,2023-09-01 02:45
Burkina Faso,Ouagadougou,12.37,-1.52,27.3,67,10.8,0.0,10.0,10.7,Clear,2023-08-31 23:45
Burundi,Bujumbura,-3.38,29.36,19.7,57,3.6,0.0,10.0,35.1,Clear,2023-09-01 01:45
Madagascar,Ivory,-24.37,46.45,18.7,69,10.4,0.0,10.0,1.2,Clear,2023-09-01 02:45
Cape Verde,Praia,14.93,-23.51,28.0,89,22.0,0.5,10.0,2.1,Partly cloudy,2023-08-31 22:45
Cambodia,Phnom Penh,11.55,104.92,27.0,94,4.0,0.1,10.0,2.5,Partly cloudy,2023-09-01 06:45
Cameroon,Bafoussam,5.47,10.42,18.5,96,5.0,0.6,10.0,28.1,Light rain shower,2023-09-01 00:45
Canada,Ottawa,45.42,-75.7,20.0,53,9.0,0.0,24.0,0.6,Partly cloudy,2023-08-31 19:45
Central African Republic,Bangui,4.37,18.58,20.9,97,4.0,0.6,2.0,7.6,Mist,2023-09-01 00:45
Chad,N'djamena,12.11,15.05,28.0,84,6.1,0.0,8.0,6.1,Clear,2023-09-01 00:45
Chile,Santiago,-33.45,-70.67,16.0,55,3.6,0.0,10.0,141.2,Partly cloudy,2023-08-31 19:45
China,Beijing,39.93,116.39,21.0,88,6.8,0.0,10.0,372.8,Sunny,2023-09-01 07:45
Bulgaria,Bogot,43.32,24.7,18.4,63,13.3,0.0,10.0,19.7,Clear,2023-09-01 02:45
Comoros,Moroni,-11.7,43.24,24.0,78,6.8,0.0,10.0,3.7,Partly cloudy,2023-09-01 02:45
Congo,Brazzaville,-4.26,15.28,26.2,47,10.4,0.0,10.0,3.3,Clear,2023-09-01 00:45
Costa Rica,San Juan,9.97,-84.08,23.0,83,6.8,1.0,10.0,17.5,Partly cloudy,2023-08-31 17:45
Croatia,Zagreb,45.8,16.0,14.0,100,3.6,0.0,10.0,6.5,Clear,2023-09-01 01:45
Cuba,Havana,23.13,-82.36,31.0,75,6.8,0.0,9.0,10.5,Partly cloudy,2023-08-31 19:45
Cyprus,Nicosia,35.17,33.37,24.0,78,16.9,0.0,10.0,20.1,Partly cloudy,2023-09-01 02:45
Czech Republic,Prague,50.08,14.47,12.0,77,15.1,0.0,10.0,3.0,Clear,2023-09-01 01:45
Democratic Republic of Congo,Kinshasa,-4.3,15.3,25.9,49,10.1,0.0,10.0,3.3,Clear,2023-09-01 00:45
Denmark,Copenhagen,55.67,12.58,13.0,94,6.8,2.1,10.0,4.1,Overcast,2023-09-01 01:45
Djibouti,Djibouti,11.6,43.15,35.0,50,6.1,0.0,9.0,27.7,Mist,2023-09-01 02:45
Dominica,Roseau,15.3,-61.4,29.0,84,13.0,0.0,10.0,2.3,Partly cloudy,2023-08-31 19:45
Dominican Republic,Santo Domingo,18.47,-69.9,29.0,89,11.2,0.0,10.0,11.4,Partly cloudy,2023-08-31 19:45
Ecuador,Quito,-0.22,-78.5,14.3,79,3.6,2.1,9.0,16.3,Patchy rain possible,2023-08-31 18:45
Egypt,Cairo,30.05,31.25,26.0,84,11.2,0.0,10.0,9.0,Partly cloudy,2023-09-01 02:45
El Salvador,San Salvador,13.71,-89.2,32.0,71,9.0,0.5,10.0,23.2,Partly cloudy,2023-08-31 17:45
Equatorial Guinea,Malabo,3.75,8.78,25.0,87,8.3,0.3,9.0,4.4,Patchy rain possible,2023-09-01 00:45
Eritrea,Asmara,15.33,38.93,16.9,76,4.7,0.5,10.0,12.0,Moderate rain at times,2023-09-01 02:45
Estonia,Tallinn,59.43,24.73,14.0,100,6.8,0.0,0.2,1.7,Fog,2023-09-01 02:45
Swaziland,Mbabane,-26.32,31.13,13.8,39,9.7,0.0,10.0,25.6,Clear,2023-09-01 01:45
Ethiopia,Addis Ababa,9.03,38.7,11.8,83,3.6,0.1,10.0,80.3,Patchy rain possible,2023-09-01 02:45
Fiji Islands,Suva,-18.13,178.42,28.0,79,20.2,0.0,10.0,4.0,Partly cloudy,2023-09-01 11:45
Finland,Helsinki,60.18,24.93,16.0,94,6.8,0.0,10.0,2.8,Partly cloudy,2023-09-01 02:45
France,Paris,48.87,2.33,18.0,94,9.0,1.9,10.0,2.4,Partly cloudy,2023-09-01 01:45
Gabon,Libreville,0.38,9.45,24.6,86,9.7,0.0,10.0,6.1,Partly cloudy,2023-09-01 00:45
Gambia,Banjul,13.45,-16.58,26.0,94,3.6,0.0,10.0,1.0,Partly cloudy,2023-08-31 23:45
Georgia,Tbilisi,41.73,44.79,23.0,69,3.6,0.0,10.0,8.6,Partly cloudy,2023-09-01 03:45
Germany,Berlin,52.52,13.4,12.0,88,16.9,0.0,10.0,3.6,Clear,2023-09-01 01:45
Ghana,Accra,5.55,-0.22,26.0,89,16.9,0.0,10.0,15.0,Partly cloudy,2023-08-31 23:45
Greece,Athens,37.98,23.72,26.0,45,9.0,0.0,10.0,3.7,Clear,2023-09-01 02:45
Grenada,Saint George's,12.05,-61.75,29.0,79,20.2,0.0,10.0,2.4,Partly cloudy,2023-08-31 19:45
Guatemala,Guatemala City,14.62,-90.53,21.0,88,3.6,1.8,10.0,14.8,Partly cloudy,2023-08-31 17:45
Guinea,Conakry,9.51,-13.71,28.0,89,19.1,0.4,10.0,2.0,Partly cloudy,2023-08-31 23:45
Guinea-Bissau,Bissau,11.85,-15.58,26.0,94,3.6,0.0,10.0,2.1,Partly cloudy,2023-08-31 23:45
Guyana,Georgetown,6.8,-58.17,25.0,94,3.6,0.0,10.0,1.5,Partly cloudy,2023-08-31 19:45
Haiti,Port-Au-Prince,18.54,-72.34,33.0,56,29.9,0.0,10.0,9.7,Partly cloudy,2023-08-31 19:45
Vatican City,Vatican City,41.9,12.45,20.0,64,6.8,0.0,10.0,15.9,Clear,2023-09-01 01:45
Honduras,Tegucigalpa,14.1,-87.22,27.0,58,6.8,0.0,10.0,2.3,Partly cloudy,2023-08-31 17:45
Hungary,Budapest,47.5,19.08,13.0,94,9.0,0.0,10.0,3.5,Clear,2023-09-01 01:45
Iceland,Hella,63.83,-20.4,10.8,87,19.1,0.0,10.0,0.9,Cloudy,2023-08-31 23:45
India,New Delhi,28.6,77.2,29.0,79,6.8,0.0,3.2,23.4,Mist,2023-09-01 05:15
Indonesia,Jakarta,-6.21,106.85,24.0,94,6.1,0.0,5.0,700.8,Mist,2023-09-01 06:45
Iran,Tehran,35.73,51.33,25.0,36,6.8,0.0,10.0,68.6,Clear,2023-09-01 03:15
Iraq,Baghdad,33.34,44.39,31.0,27,6.1,0.0,10.0,16.4,Clear,2023-09-01 02:45
Ireland,Dublin,53.33,-6.25,15.0,94,3.6,0.0,10.0,2.5,Light rain,2023-09-01 00:45
Israel,Jerusalem,31.78,35.23,26.0,89,6.8,0.0,10.0,32.5,Partly cloudy,2023-09-01 02:45
Italy,Rome,41.9,12.48,20.0,64,6.8,0.0,10.0,15.9,Clear,2023-09-01 01:45
Jamaica,Norman Gardens,17.97,-76.75,31.0,75,38.9,0.0,10.0,4.9,Partly cloudy,2023-08-31 18:45
Japan,Tokyo,35.69,139.69,29.0,66,9.0,0.0,10.0,15.5,Partly cloudy,2023-09-01 08:45
Jordan,Amman,31.95,35.93,26.0,32,4.0,0.0,7.0,23.9,Clear,2023-09-01 02:45
Kazakhstan,Astana,51.18,71.43,10.0,94,22.0,0.0,10.0,0.7,Partly cloudy,2023-09-01 05:45
Kenya,Nairobi,-1.28,36.82,17.0,83,9.0,0.0,10.0,7.3,Partly cloudy,2023-09-01 02:45
Kiribati,Tarawa,-0.88,169.53,28.9,76,20.5,0.1,10.0,2.1,Patchy rain possible,2023-09-01 11:45
Kuwait,Kuwait City,29.37,47.96,34.6,32,18.0,0.0,10.0,21.8,Clear,2023-09-01 02:45
Kyrghyzstan,Bishkek,42.87,74.6,12.6,72,4.3,0.0,10.0,6.4,Clear,2023-09-01 05:45
Indonesia,Laos,-8.18,114.32,17.7,88,4.3,0.0,10.0,16.1,Sunny,2023-09-01 06:45
Latvia,Riga,56.95,24.1,16.0,94,11.2,0.0,10.0,5.6,Overcast,2023-09-01 02:45
Lebanon,Beirut,33.87,35.51,28.0,79,6.1,0.0,8.0,7.7,Partly cloudy,2023-09-01 02:45
Lesotho,Maseru,-29.32,27.48,12.3,29,8.3,0.0,10.0,9.3,Clear,2023-09-01 01:45
Liberia,Monrovia,6.31,-10.8,25.0,94,3.6,0.6,7.0,2.0,Moderate rain,2023-08-31 23:45
Thailand,Nan,18.78,100.78,24.0,100,3.6,1.0,6.0,10.6,Partly cloudy,2023-09-01 06:45
Liechtenstein,Vaduz,47.13,9.52,16.0,94,3.6,0.0,10.0,2.1,Partly cloudy,2023-09-01 01:45
Lithuania,Vilnius,54.68,25.32,13.0,100,13.0,0.0,10.0,3.3,Fog,2023-09-01 02:45
Luxembourg,Luxembourg,49.61,6.13,13.0,100,9.0,1.8,3.0,3.2,Light rain,2023-09-01 01:45
Madagascar,Antananarivo,-18.92,47.52,12.0,88,13.0,0.0,10.0,3.3,Partly cloudy,2023-09-01 02:45
Malawi,Lilongwe,-13.98,33.78,18.1,54,4.7,0.0,10.0,16.2,Clear,2023-09-01 01:45
Malaysia,Kuala Lumpur,3.17,101.7,25.0,89,3.6,1.3,10.0,115.5,Partly cloudy,2023-09-01 07:45
Maldives,Farukolhufunadhoo,6.15,73.27,28.0,79,30.2,0.3,10.0,1.3,Light rain shower,2023-09-01 04:45
Mali,Bamako,12.65,-8.0,25.0,100,4.0,0.1,10.0,11.6,Partly cloudy,2023-08-31 23:45
Malta,Valletta,35.9,14.51,23.0,83,9.0,0.0,10.0,4.9,Clear,2023-09-01 01:45
Marshall Islands,Majuro,7.1,171.38,27.0,89,11.2,0.5,16.0,0.5,Light rain,2023-09-01 11:45
Mauritania,Nouakchott,18.09,-15.98,28.0,82,21.2,0.0,10.0,4.3,Clear,2023-08-31 23:45
Mauritius,Port Louis,-20.16,57.5,22.0,65,9.0,0.0,10.0,1.6,Partly cloudy,2023-09-01 03:45
Mexico,Mexico City,19.43,-99.13,17.0,83,15.1,0.0,1.6,13.8,Moderate or heavy rain with thunder,2023-08-31 17:45
Micronesia,Palikir,6.92,158.15,30.0,79,9.0,0.0,24.0,0.5,Partly cloudy,2023-09-01 10:45
Russia,Chi-Chi-Erh,51.7,94.45,14.8,79,4.0,0.0,10.0,2.5,Sunny,2023-09-01 06:45
Monaco,Monaco,43.73,7.42,20.0,68,13.0,0.0,10.0,8.4,Partly cloudy,2023-09-01 01:45
Mongolia,Ulaanbaatar,47.92,106.92,10.0,82,3.6,0.0,10.0,7.7,Partly cloudy,2023-09-01 07:45
Montenegro,Podgorica,42.44,19.26,19.0,88,4.0,0.0,10.0,5.5,Clear,2023-09-01 01:45
Morocco,Rabat,34.03,-6.84,19.0,94,6.1,0.0,5.0,9.0,Clear,2023-09-01 00:45
Mozambique,Maputo,-25.97,32.59,19.4,77,11.2,0.0,10.0,4.1,Clear,2023-09-01 01:45
Myanmar,Pathein,16.78,94.73,25.4,93,6.1,0.1,10.0,19.9,Patchy rain possible,2023-09-01 06:15
Namibia,Windhoek,-22.57,17.08,15.0,48,6.8,0.0,10.0,29.9,Clear,2023-09-01 01:45
Turkey,Yaren,39.55,27.62,23.0,57,3.6,0.0,10.0,8.1,Clear,2023-09-01 02:45
Nepal,Kathmandu,27.72,85.32,22.0,88,3.6,0.0,7.0,44.1,Partly cloudy,2023-09-01 05:30
Netherlands,Amsterdam,52.37,4.89,14.0,88,6.1,0.0,10.0,5.5,Clear,2023-09-01 01:45
New Zealand,Wellington,-41.3,174.78,14.0,63,37.1,0.0,10.0,0.5,Sunny,2023-09-01 11:45
Nicaragua,Managua,12.15,-86.27,34.0,60,11.2,0.0,10.0,5.3,Partly cloudy,2023-08-31 17:45
Niger,Niamey,13.52,2.12,28.0,74,6.1,0.0,10.0,4.2,Clear,2023-09-01 00:45
Nigeria,Abuja,9.18,7.18,26.0,89,3.6,3.2,10.0,11.4,Clear,2023-09-01 00:45
North Korea,Pyongyang,39.02,125.75,19.9,81,4.7,0.0,10.0,57.5,Sunny,2023-09-01 08:45
Macedonia,Skopje,42.0,21.43,14.0,82,3.6,0.0,10.0,4.9,Clear,2023-09-01 01:45
Norway,Oslo,59.92,10.75,12.0,77,29.9,0.0,10.0,2.8,Partly cloudy,2023-09-01 01:45
Oman,Muscat,23.61,58.59,30.0,89,6.8,0.0,10.0,35.4,Partly cloudy,2023-09-01 03:45
Pakistan,Islamabad,33.7,73.17,26.3,60,4.3,0.0,10.0,75.2,Clear,2023-09-01 04:45
Palau,Adkip,7.36,134.51,29.0,79,13.0,0.0,23.0,2.1,Partly cloudy,2023-09-01 08:45
Bolivia,National,-11.18,-67.08,32.7,35,5.8,0.0,10.0,5.4,Clear,2023-08-31 19:45
Panama,Panama City,8.97,-79.53,28.0,84,11.2,0.7,10.0,12.9,Partly cloudy,2023-08-31 18:45
Papua New Guinea,Port Moresby,-9.46,147.19,25.0,74,16.9,0.0,10.0,3.1,Mist,2023-09-01 09:45
Paraguay,Carreria,-21.55,-58.12,31.4,39,9.7,0.0,10.0,5.9,Clear,2023-08-31 19:45
Peru,Lima,-12.05,-77.05,18.7,80,14.8,0.0,10.0,11.1,Cloudy,2023-08-31 18:45
Philippines,Manila,14.6,120.98,27.0,94,20.2,1.0,5.0,2.8,Heavy rain at times,2023-09-01 07:45
Poland,Warsaw,52.25,21.0,12.0,94,6.8,0.0,10.0,5.3,Clear,2023-09-01 01:45
Portugal,Lisbon,38.72,-9.13,19.0,83,19.1,0.0,10.0,3.1,Partly cloudy,2023-09-01 00:45
Qatar,Doha,25.29,51.53,36.0,37,15.1,0.0,10.0,27.6,Clear,2023-09-01 02:45
Romania,Bucharest,44.43,26.1,19.0,78,3.6,0.0,10.0,9.1,Clear,2023-09-01 02:45
Russia,Moscow,55.75,37.62,16.0,88,15.1,0.0,10.0,9.7,Clear,2023-09-01 02:45
Rwanda,Kigali,-1.95,30.06,22.0,57,6.1,0.0,10.0,12.1,Partly cloudy,2023-09-01 01:45
Saint Kitts and Nevis,Basseterre,17.3,-62.72,29.0,79,20.2,0.0,10.0,3.8,Partly cloudy,2023-08-31 19:45
Saint Lucia,Castries,14.0,-61.0,28.0,79,19.1,0.1,10.0,3.5,Clear,2023-08-31 19:45
Saint Vincent and the Grenadines,Kingstown,13.13,-61.22,29.1,74,23.4,0.0,10.0,5.5,Partly cloudy,2023-08-31 19:45
Samoa,Apia,-13.83,-171.73,30.0,75,9.0,0.0,10.0,3.7,Partly cloudy,2023-09-01 12:45
San Marino,San Marino,43.93,12.45,19.0,78,4.0,0.1,10.0,4.5,Clear,2023-09-01 01:45
Belgium,'S-Gravenwezel,51.27,4.55,14.0,94,9.0,0.0,10.0,3.1,Light rain,2023-09-01 01:45
Saudi Arabia,Riyadh,24.64,46.77,30.0,19,4.0,0.0,10.0,34.6,Clear,2023-09-01 02:45
Senegal,Dakar,14.67,-17.44,28.0,84,22.0,0.0,10.0,1.3,Partly cloudy,2023-08-31 23:45
Serbia,Belgrade,44.8,20.47,19.0,83,13.0,0.0,10.0,10.8,Partly cloudy,2023-09-01 01:45
Seychelles Islands,Victoria,-4.62,55.45,26.2,76,27.4,0.0,10.0,4.7,Cloudy,2023-09-01 03:45
Sierra Leone,Freetown,8.49,-13.23,25.5,86,11.5,0.2,9.0,2.1,Patchy rain possible,2023-08-31 23:45
Singapore,Singapore,1.29,103.86,28.0,79,6.8,0.3,10.0,10.2,Partly cloudy,2023-09-01 07:45
Slovakia,Bratislava,48.15,17.12,14.0,82,3.6,0.0,10.0,3.9,Clear,2023-09-01 01:45
Slovenia,Ljubljana,46.06,14.51,14.0,100,4.0,0.0,10.0,9.6,Partly cloudy,2023-09-01 01:45
Solomon Islands,Honiara,-9.43,159.95,27.0,80,4.0,0.9,9.0,1.3,Patchy rain possible,2023-09-01 10:45
Somalia,Mogadishu,2.07,45.37,24.6,85,27.7,0.0,10.0,9.6,Cloudy,2023-09-01 02:45
South Africa,Pretoria,-25.75,28.19,12.0,44,3.6,0.0,10.0,18.3,Clear,2023-09-01 01:45
South Korea,Seoul,37.57,127.0,22.0,88,3.6,0.0,10.0,45.7,Partly cloudy,2023-09-01 08:45
Sudan,Juba,12.15,24.45,23.5,76,6.1,0.1,10.0,2.3,Patchy rain possible,2023-09-01 01:45
Spain,Madrid,40.4,-3.68,22.0,33,3.6,0.0,10.0,5.7,Clear,2023-09-01 01:45
Sri Lanka,Colombo,6.93,79.85,24.0,94,9.0,0.0,10.0,2.2,Partly cloudy,2023-09-01 05:15
Sudan,Khartoum,15.59,32.53,30.5,49,18.0,0.0,10.0,5.5,Clear,2023-09-01 01:45
Suriname,Paramaribo,5.83,-55.17,24.0,83,6.8,0.1,6.0,1.8,Light rain,2023-08-31 20:45
Sweden,Stockholm,59.33,18.05,12.0,100,3.6,0.0,10.0,6.1,Partly cloudy,2023-09-01 01:45
Switzerland,Bern,46.92,7.47,15.0,88,11.2,0.0,10.0,3.4,Partly cloudy,2023-09-01 01:45
Syria,Damascus,33.5,36.3,23.0,38,6.8,0.0,10.0,32.6,Clear,2023-09-01 02:45
Tajikistan,Dushanbe,38.56,68.77,19.0,64,3.6,0.0,7.0,10.2,Clear,2023-09-01 04:45
Tanzania,Dodoma,-6.18,35.75,18.5,73,16.6,0.0,10.0,2.8,Clear,2023-09-01 02:45
Thailand,Bangkok,13.75,100.52,27.0,89,9.0,0.0,10.0,39.7,Partly cloudy,2023-09-01 06:45
Indonesia,Murong Timor,-7.56,112.27,20.1,84,11.9,0.0,10.0,12.7,Sunny,2023-09-01 06:45
Bulgaria,Lom,43.81,23.24,19.4,59,12.6,0.0,10.0,12.0,Partly cloudy,2023-09-01 02:45
Tonga,Nuku`Aloia,-21.13,-175.2,25.0,79,22.0,0.0,10.0,2.7,Partly cloudy,2023-09-01 12:45
Trinidad and Tobago,Port Of Spain,10.65,-61.52,27.0,89,6.1,0.1,10.0,1.7,Overcast,2023-08-31 19:45
Tunisia,Tunis,36.8,10.18,21.0,73,3.6,0.0,10.0,4.9,Partly cloudy,2023-09-01 00:45
Turkey,Ankara,39.93,32.86,24.0,54,15.1,0.0,10.0,20.9,Clear,2023-09-01 02:45
Turkmenistan,Ashgabat,37.95,58.38,21.0,49,11.2,0.0,10.0,17.8,Clear,2023-09-01 04:45
Tuvalu,Funafuti,-8.52,179.22,33.0,80,15.1,0.1,10.0,1.0,Partly cloudy,2023-09-01 11:45
Uganda,Kampala,0.32,32.57,21.0,88,15.1,0.1,10.0,61.6,Partly cloudy,2023-09-01 02:45
Ukraine,Lviv,49.83,24.0,12.5,86,10.1,0.0,10.0,10.0,Partly cloudy,2023-09-01 02:45
United Arab Emirates,Abu Dhabi,24.47,54.37,33.0,80,6.1,0.0,10.0,39.2,Partly cloudy,2023-09-01 03:45
United Kingdom,London,51.52,-0.11,15.0,94,6.8,0.0,10.0,2.7,Light rain,2023-09-01 00:45
United States of America,Washington Park,46.6,-120.49,18.3,65,15.1,0.0,16.0,0.5,Sunny,2023-08-31 16:45
Uruguay,Montevideo,-34.86,-56.17,10.0,66,13.0,0.0,10.0,11.6,Clear,2023-08-31 20:45
Uzbekistan,Tashkent,41.32,69.25,16.0,63,6.8,0.0,10.0,5.9,Clear,2023-09-01 04:45
Vanuatu,Port Vila,-17.73,168.32,27.0,79,13.0,0.2,10.0,0.9,Partly cloudy,2023-09-01 10:45
Venezuela,Caracas,10.5,-66.92,27.0,74,4.0,0.3,10.0,7.7,Partly cloudy,2023-08-31 19:45
Vietnam,Hanoi,21.03,105.85,26.0,84,6.8,0.0,7.0,88.1,Sunny,2023-09-01 06:45
Yemen,Sanaa,15.35,44.21,17.1,54,3.6,0.0,9.0,26.7,Thundery outbreaks possible,2023-09-01 02:45
Zambia,Lusaka,-15.42,28.28,17.2,35,9.0,0.0,10.0,12.6,Clear,2023-09-01 01:45
Zimbabwe,Harare,-17.82,31.04,14.1,35,5.0,0.0,10.0,62.1,Clear,2023-09-01 01:45
Afghanistan,Kabul,34.52,69.18,18.5,40,3.6,0.5,10.0,10.8,Moderate rain at times,2023-09-02 04:00
Albania,Tirana,41.33,19.82,18.0,94,3.6,0.0,10.0,8.1,Clear,2023-09-02 01:30
Algeria,Algiers,36.76,3.05,24.0,83,3.6,0.0,10.0,8.8,Clear,2023-09-02 00:30
Andorra,Andorra La Vella,42.5,1.52,9.0,90,5.4,1.1,9.0,1.6,Patchy rain possible,2023-09-02 01:30
Angola,Luanda,-8.84,13.23,21.0,94,3.6,0.0,8.0,9.1,Partly cloudy,2023-09-02 00:30
Antigua and Barbuda,Saint John's,17.12,-61.85,29.0,75,11.2,0.0,10.0,1.8,Partly cloudy,2023-09-01 19:30
Argentina,Buenos Aires,-34.59,-58.67,17.0,72,3.6,0.0,10.0,21.8,Clear,2023-09-01 20:30
Armenia,Yerevan,40.18,44.51,25.0,36,6.1,0.0,10.0,4.2,Clear,2023-09-02 03:30
Australia,Canberra,-35.28,149.22,7.0,66,9.0,0.0,10.0,1.6,Sunny,2023-09-02 09:30
Austria,Vienna,48.2,16.37,18.0,77,6.8,0.0,10.0,10.3,Clear,2023-09-02 01:30
Azerbaijan,Baku,40.4,49.88,24.0,74,6.8,0.0,10.0,5.6,Clear,2023-09-02 03:30
Bahamas,Nassau,25.08,-77.35,30.0,79,13.0,0.0,10.0,8.0,Overcast,2023-09-01 19:30
Bahrain,Manama,26.24,50.58,34.0,47,9.0,0.0,10.0,46.0,Clear,2023-09-02 02:30
Bangladesh,Dhaka,23.72,90.41,28.6,80,7.2,0.0,10.0,86.0,Partly cloudy,2023-09-02 05:30
Barbados,Bridgetown,13.1,-59.62,27.0,94,16.9,0.8,10.0,2.3,Partly cloudy,2023-09-01 19:30
Belarus,Minsk,53.9,27.57,10.0,100,3.6,0.0,10.0,4.1,Clear,2023-09-02 02:30
Belgium,Brussels,50.83,4.33,16.0,100,9.0,0.9,10.0,4.9,Clear,2023-09-02 01:30
Belize,Belmopan,17.25,-88.77,31.0,79,13.0,0.0,10.0,2.1,Light rain,2023-09-01 17:30
Benin,Porto-Novo,6.48,2.62,26.0,89,24.1,0.0,10.0,9.5,Partly cloudy,2023-09-02 00:30
Bhutan,Thimphu,27.48,89.6,12.4,94,3.6,0.0,2.0,7.2,Mist,2023-09-02 05:30
Bolivia,Sucre,-19.04,-65.26,17.8,47,18.7,0.0,10.0,1.9,Clear,2023-09-01 19:30
Bosnia and Herzegovina,Sarajevo,43.85,18.38,13.0,100,3.6,0.0,10.0,26.6,Clear,2023-09-02 01:30
Botswana,Gaborone,-24.65,25.91,18.1,26,4.0,0.0,10.0,18.4,Clear,2023-09-02 01:30
Brazil,Bras,-2.08,-58.17,31.5,39,3.6,0.0,10.0,2.5,Clear,2023-09-01 19:30
Brunei Darussalam,Bandar Seri Begawan,4.88,114.93,25.0,100,6.8,0.0,10.0,1.9,Partly cloudy,2023-09-02 07:30
Bulgaria,Sofia,42.68,23.32,19.0,68,6.1,0.0,10.0,9.4,Partly cloudy,2023-09-02 02:30
Burkina Faso,Ouagadougou,12.37,-1.52,27.0,94,6.8,0.0,10.0,22.8,Clear,2023-09-01 23:30
Burundi,Bujumbura,-3.38,29.36,22.1,56,3.6,0.0,10.0,53.3,Clear,2023-09-02 01:30
Madagascar,Ivory,-24.37,46.45,19.8,68,6.8,0.0,10.0,1.2,Clear,2023-09-02 02:30
Cape Verde,Praia,14.93,-23.51,28.0,84,15.1,0.3,10.0,3.3,Partly cloudy,2023-09-01 22:30
Cambodia,Phnom Penh,11.55,104.92,28.0,84,15.1,0.1,10.0,1.7,Partly cloudy,2023-09-02 06:30
Cameroon,Bafoussam,5.47,10.42,18.5,96,4.0,4.3,7.0,11.0,Moderate or heavy rain shower,2023-09-02 00:30
Canada,Ottawa,45.42,-75.7,21.0,64,6.8,0.0,24.0,1.9,Clear,2023-09-01 19:30
Central African Republic,Bangui,4.37,18.58,24.0,89,3.6,1.3,7.0,5.1,Partly cloudy,2023-09-02 00:30
Chad,N'djamena,12.11,15.05,24.8,68,12.6,0.0,10.0,14.7,Clear,2023-09-02 00:30
Chile,Santiago,-33.45,-70.67,13.0,62,9.0,0.0,10.0,146.6,Overcast,2023-09-01 19:30
China,Beijing,39.93,116.39,21.0,94,3.6,0.0,10.0,342.2,Sunny,2023-09-02 07:30
Bulgaria,Bogot,43.32,24.7,18.3,50,5.0,0.0,10.0,9.6,Clear,2023-09-02 02:30
Comoros,Moroni,-11.7,43.24,20.7,75,4.3,0.0,10.0,3.7,Clear,2023-09-02 02:30
Congo,Brazzaville,-4.26,15.28,26.0,65,15.1,0.0,8.0,19.7,Clear,2023-09-02 00:30
Costa Rica,San Juan,9.97,-84.08,21.0,88,3.6,0.7,10.0,16.5,Overcast,2023-09-01 17:30
Croatia,Zagreb,45.8,16.0,17.0,88,3.6,0.0,10.0,13.3,Clear,2023-09-02 01:30
Cuba,Havana,23.13,-82.36,31.0,71,15.1,0.0,9.0,3.6,Partly cloudy,2023-09-01 19:30
Cyprus,Nicosia,35.17,33.37,24.0,78,19.1,0.0,10.0,13.5,Clear,2023-09-02 02:30
Czech Republic,Prague,50.08,14.47,17.0,94,13.0,0.7,10.0,11.6,Clear,2023-09-02 01:30
Democratic Republic of Congo,Kinshasa,-4.3,15.3,26.0,65,15.1,0.0,8.0,19.7,Clear,2023-09-02 00:30
Denmark,Copenhagen,55.67,12.58,15.0,88,11.2,0.0,10.0,8.6,Clear,2023-09-02 01:30
Djibouti,Djibouti,11.6,43.15,32.4,57,5.8,0.0,10.0,23.7,Clear,2023-09-02 02:30
Dominica,Roseau,15.3,-61.4,27.0,89,4.0,0.2,10.0,1.8,Partly cloudy,2023-09-01 19:30
Dominican Republic,Santo Domingo,18.47,-69.9,28.0,84,6.8,0.0,10.0,8.8,Partly cloudy,2023-09-01 19:30
Ecuador,Quito,-0.22,-78.5,14.8,73,4.3,0.9,10.0,31.9,Patchy light rain with thunder,2023-09-01 18:30
Egypt,Cairo,30.05,31.25,26.0,70,16.9,0.0,10.0,13.7,Clear,2023-09-02 02:30
El Salvador,San Salvador,13.71,-89.2,24.0,74,15.1,0.1,10.0,7.5,Overcast,2023-09-01 17:30
Equatorial Guinea,Malabo,3.75,8.78,24.5,89,15.1,5.7,7.0,4.4,Moderate or heavy rain shower,2023-09-02 00:30
Eritrea,Asmara,15.33,38.93,18.1,74,3.6,0.1,10.0,25.2,Patchy rain possible,2023-09-02 02:30
Estonia,Tallinn,59.43,24.73,10.0,94,11.2,0.0,10.0,5.4,Clear,2023-09-02 02:30
Swaziland,Mbabane,-26.32,31.13,12.8,92,4.7,0.0,10.0,6.2,Partly cloudy,2023-09-02 01:30
Ethiopia,Addis Ababa,9.03,38.7,14.0,82,4.0,0.0,10.0,222.1,Partly cloudy,2023-09-02 02:30
Fiji Islands,Suva,-18.13,178.42,28.0,70,22.0,0.0,10.0,2.9,Partly cloudy,2023-09-02 11:30
Finland,Helsinki,60.18,24.93,12.0,94,6.8,0.1,10.0,6.7,Partly cloudy,2023-09-02 02:30
France,Paris,48.87,2.33,18.0,88,6.1,0.0,10.0,83.2,Partly cloudy,2023-09-02 01:30
Gabon,Libreville,0.38,9.45,26.0,84,13.0,0.0,10.0,6.1,Partly cloudy,2023-09-02 00:30
Gambia,Banjul,13.45,-16.58,23.0,94,3.6,2.4,10.0,2.4,Partly cloudy,2023-09-01 23:30
Georgia,Tbilisi,41.73,44.79,24.0,74,13.0,0.0,10.0,17.2,Partly cloudy,2023-09-02 03:30
Germany,Berlin,52.52,13.4,12.0,94,4.0,0.0,10.0,6.4,Clear,2023-09-02 01:30
Ghana,Accra,5.55,-0.22,26.0,89,20.2,0.0,10.0,9.2,Partly cloudy,2023-09-01 23:30
Greece,Athens,37.98,23.72,25.0,41,9.0,0.0,10.0,15.9,Partly cloudy,2023-09-02 02:30
Grenada,Saint George's,12.05,-61.75,29.0,84,19.1,0.2,10.0,1.3,Partly cloudy,2023-09-01 19:30
Guatemala,Guatemala City,14.62,-90.53,26.0,58,11.2,0.6,10.0,3.6,Overcast,2023-09-01 17:30
Guinea,Conakry,9.51,-13.71,27.0,89,3.6,0.8,10.0,13.6,Patchy light rain with thunder,2023-09-01 23:30
Guinea-Bissau,Bissau,11.85,-15.58,25.0,94,3.6,0.4,8.0,2.5,Partly cloudy,2023-09-01 23:30
Guyana,Georgetown,6.8,-58.17,28.0,84,11.2,0.2,10.0,2.0,Partly cloudy,2023-09-01 19:30
Haiti,Port-Au-Prince,18.54,-72.34,31.0,79,9.0,0.0,9.0,12.4,Patchy light rain with thunder,2023-09-01 19:30
Vatican City,Vatican City,41.9,12.45,20.0,83,3.6,0.0,10.0,26.8,Clear,2023-09-02 01:30
Honduras,Tegucigalpa,14.1,-87.22,22.0,88,25.9,1.2,10.0,1.5,Partly cloudy,2023-09-01 17:30
Hungary,Budapest,47.5,19.08,15.0,88,3.6,0.0,10.0,25.4,Clear,2023-09-02 01:30
Iceland,Hella,63.83,-20.4,11.8,96,70.6,3.4,7.0,1.7,Moderate rain,2023-09-01 23:30
India,New Delhi,28.6,77.2,31.3,38,12.6,0.0,10.0,21.7,Clear,2023-09-02 05:00
Indonesia,Jakarta,-6.21,106.85,24.0,94,6.8,0.0,5.0,563.6,Mist,2023-09-02 06:30
Iran,Tehran,35.73,51.33,26.0,32,6.8,0.0,10.0,72.5,Clear,2023-09-02 03:00
Iraq,Baghdad,33.34,44.39,34.0,22,3.6,0.0,10.0,18.4,Clear,2023-09-02 02:30
Ireland,Dublin,53.33,-6.25,13.0,100,11.2,0.0,5.0,6.9,Fog,2023-09-02 00:30
Israel,Jerusalem,31.78,35.23,26.0,74,3.6,0.0,10.0,23.9,Partly cloudy,2023-09-02 02:30
Italy,Rome,41.9,12.48,20.0,83,3.6,0.0,10.0,26.8,Clear,2023-09-02 01:30
Jamaica,Norman Gardens,17.97,-76.75,33.0,71,37.1,0.0,10.0,15.7,Partly cloudy,2023-09-01 18:30
Japan,Tokyo,35.69,139.69,30.0,75,19.1,0.0,10.0,14.0,Partly cloudy,2023-09-02 08:30
Jordan,Amman,31.95,35.93,26.0,34,3.6,0.0,8.0,20.5,Clear,2023-09-02 02:30
Kazakhstan,Astana,51.18,71.43,7.0,100,6.8,0.0,0.1,1.7,Fog,2023-09-02 05:30
Kenya,Nairobi,-1.28,36.82,17.0,83,9.0,0.1,10.0,10.7,Partly cloudy,2023-09-02 02:30
Kiribati,Tarawa,-0.88,169.53,29.0,77,22.0,0.1,10.0,0.9,Patchy rain possible,2023-09-02 11:30
Kuwait,Kuwait City,29.37,47.96,34.8,29,22.7,0.0,10.0,22.9,Clear,2023-09-02 02:30
Kyrghyzstan,Bishkek,42.87,74.6,14.5,45,4.3,0.0,10.0,9.5,Clear,2023-09-02 05:30
Indonesia,Laos,-8.18,114.32,18.0,89,3.6,0.0,10.0,17.6,Partly cloudy,2023-09-02 06:30
Latvia,Riga,56.95,24.1,14.0,94,20.2,5.2,10.0,1.1,Partly cloudy,2023-09-02 02:30
Lebanon,Beirut,33.87,35.51,27.0,74,11.2,0.0,10.0,18.5,Partly cloudy,2023-09-02 02:30
Lesotho,Maseru,-29.32,27.48,12.5,34,6.1,0.0,10.0,35.7,Clear,2023-09-02 01:30
Liberia,Monrovia,6.31,-10.8,25.0,94,3.6,1.2,10.0,1.9,Moderate or heavy rain with thunder,2023-09-01 23:30
Thailand,Nan,18.78,100.78,26.0,94,6.8,0.8,10.0,12.8,Partly cloudy,2023-09-02 06:30
Liechtenstein,Vaduz,47.13,9.52,16.0,94,4.0,0.0,10.0,10.0,Clear,2023-09-02 01:30
Lithuania,Vilnius,54.68,25.32,14.0,72,16.9,0.0,10.0,2.8,Clear,2023-09-02 02:30
Luxembourg,Luxembourg,49.61,6.13,15.0,100,6.1,0.0,10.0,2.9,Clear,2023-09-02 01:30
Madagascar,Antananarivo,-18.92,47.52,12.0,100,13.0,0.0,10.0,6.6,Partly cloudy,2023-09-02 02:30
Malawi,Lilongwe,-13.98,33.78,19.4,51,4.3,0.0,10.0,20.4,Clear,2023-09-02 01:30
Malaysia,Kuala Lumpur,3.17,101.7,25.0,94,3.6,0.1,7.0,213.3,Partly cloudy,2023-09-02 07:30
Maldives,Farukolhufunadhoo,6.15,73.27,26.9,83,25.6,1.6,10.0,1.6,Light rain shower,2023-09-02 04:30
Mali,Bamako,12.65,-8.0,27.0,89,3.6,0.0,10.0,3.8,Partly cloudy,2023-09-01 23:30
Malta,Valletta,35.9,14.51,23.0,78,6.8,0.0,10.0,57.4,Partly cloudy,2023-09-02 01:30
Marshall Islands,Majuro,7.1,171.38,29.0,79,13.0,0.7,24.0,0.5,Overcast,2023-09-02 11:30
Mauritania,Nouakchott,18.09,-15.98,28.0,79,29.9,0.0,10.0,2.5,Clear,2023-09-01 23:30
Mauritius,Port Louis,-20.16,57.5,22.0,88,19.1,0.0,10.0,4.8,Overcast,2023-09-02 03:30
Mexico,Mexico City,19.43,-99.13,20.0,60,22.0,0.0,9.7,144.9,Moderate or heavy rain with thunder,2023-09-01 17:30
Micronesia,Palikir,6.92,158.15,29.0,79,6.1,5.7,21.0,0.5,Light rain,2023-09-02 10:30
Russia,Chi-Chi-Erh,51.7,94.45,13.9,70,8.6,0.1,10.0,1.0,Patchy rain possible,2023-09-02 06:30
Monaco,Monaco,43.73,7.42,23.0,78,11.2,0.0,10.0,12.5,Partly cloudy,2023-09-02 01:30
Mongolia,Ulaanbaatar,47.92,106.92,11.0,87,3.6,0.2,10.0,1.5,Partly cloudy,2023-09-02 07:30
Montenegro,Podgorica,42.44,19.26,20.0,83,9.0,0.0,10.0,6.2,Clear,2023-09-02 01:30
Morocco,Rabat,34.03,-6.84,22.0,83,13.0,0.0,5.0,3.1,Partly cloudy,2023-09-02 00:30
Mozambique,Maputo,-25.97,32.59,19.0,78,16.9,0.0,10.0,5.7,Clear,2023-09-02 01:30
Myanmar,Pathein,16.78,94.73,25.8,92,6.1,0.3,10.0,15.4,Light rain shower,2023-09-02 06:00
Namibia,Windhoek,-22.57,17.08,15.0,31,6.1,0.0,10.0,35.0,Clear,2023-09-02 01:30
Turkey,Yaren,39.55,27.62,24.0,65,9.0,0.0,10.0,16.5,Clear,2023-09-02 02:30
Nepal,Kathmandu,27.72,85.32,21.0,94,6.1,0.0,7.0,75.2,Partly cloudy,2023-09-02 05:15
Netherlands,Amsterdam,52.37,4.89,17.0,94,9.0,0.0,5.0,4.6,Mist,2023-09-02 01:30
New Zealand,Wellington,-41.3,174.78,16.0,63,4.0,0.0,10.0,1.6,Sunny,2023-09-02 11:30
Nicaragua,Managua,12.15,-86.27,31.0,66,15.1,0.3,10.0,2.5,Partly cloudy,2023-09-01 17:30
Niger,Niamey,13.52,2.12,30.0,66,11.2,0.0,10.0,9.5,Clear,2023-09-02 00:30
Nigeria,Abuja,9.18,7.18,22.0,94,9.0,2.5,10.0,10.6,Patchy light rain with thunder,2023-09-02 00:30
North Korea,Pyongyang,39.02,125.75,19.7,84,3.6,0.0,10.0,17.6,Sunny,2023-09-02 08:30
Macedonia,Skopje,42.0,21.43,16.0,82,3.6,0.0,10.0,15.9,Clear,2023-09-02 01:30
Norway,Oslo,59.92,10.75,12.0,67,15.1,0.0,10.0,4.9,Overcast,2023-09-02 01:30
Oman,Muscat,23.61,58.59,30.0,89,11.2,0.0,8.0,38.2,Clear,2023-09-02 03:30
Pakistan,Islamabad,33.7,73.17,26.6,61,8.6,0.0,10.0,78.5,Clear,2023-09-02 04:30
Palau,Adkip,7.36,134.51,28.0,89,13.0,0.3,21.0,2.2,Overcast,2023-09-02 08:30
Bolivia,National,-11.18,-67.08,26.7,70,4.0,0.2,9.0,4.3,Patchy rain possible,2023-09-01 19:30
Panama,Panama City,8.97,-79.53,28.0,89,13.0,0.7,10.0,2.8,Partly cloudy,2023-09-01 18:30
Papua New Guinea,Port Moresby,-9.46,147.19,27.0,66,19.1,0.0,10.0,2.0,Mist,2023-09-02 09:45
Paraguay,Carreria,-21.55,-58.12,32.8,35,9.4,0.0,10.0,9.7,Clear,2023-09-01 19:30
Peru,Lima,-12.05,-77.05,18.7,81,15.5,0.0,10.0,9.1,Partly cloudy,2023-09-01 18:45
Philippines,Manila,14.6,120.98,27.0,94,13.0,1.1,9.0,4.0,Light rain,2023-09-02 07:45
Poland,Warsaw,52.25,21.0,13.0,88,6.1,0.0,10.0,10.0,Clear,2023-09-02 01:30
Portugal,Lisbon,38.72,-9.13,20.0,83,11.2,0.0,10.0,2.0,Partly cloudy,2023-09-02 00:30
Qatar,Doha,25.29,51.53,35.0,30,9.0,0.0,10.0,37.5,Clear,2023-09-02 02:45
Romania,Bucharest,44.43,26.1,19.0,68,4.0,0.0,10.0,9.5,Clear,2023-09-02 02:45
Russia,Moscow,55.75,37.62,15.0,88,11.2,0.0,10.0,13.7,Clear,2023-09-02 02:30
Rwanda,Kigali,-1.95,30.06,18.0,94,28.1,0.0,10.0,38.6,Patchy light rain with thunder,2023-09-02 01:45
Saint Kitts and Nevis,Basseterre,17.3,-62.72,28.0,84,13.0,0.0,10.0,2.0,Partly cloudy,2023-09-01 19:45
Saint Lucia,Castries,14.0,-61.0,26.0,94,6.8,0.2,10.0,1.8,Light rain,2023-09-01 19:45
Saint Vincent and the Grenadines,Kingstown,13.13,-61.22,29.0,74,24.8,0.4,10.0,1.7,Light rain shower,2023-09-01 19:45
Samoa,Apia,-13.83,-171.73,30.0,66,16.9,0.0,10.0,3.2,Partly cloudy,2023-09-02 12:45
San Marino,San Marino,43.93,12.45,19.0,88,4.0,0.0,10.0,7.4,Clear,2023-09-02 01:30
Belgium,'S-Gravenwezel,51.27,4.55,17.0,94,3.6,1.5,8.0,5.5,Overcast,2023-09-02 01:45
Saudi Arabia,Riyadh,24.64,46.77,30.0,14,4.0,0.0,10.0,20.8,Clear,2023-09-02 02:30
Senegal,Dakar,14.67,-17.44,29.0,84,15.1,9.0,10.0,1.7,Patchy light rain with thunder,2023-09-01 23:45
Serbia,Belgrade,44.8,20.47,17.0,88,6.1,0.0,10.0,19.9,Clear,2023-09-02 01:45
Seychelles Islands,Victoria,-4.62,55.45,27.0,74,24.1,0.0,10.0,5.2,Partly cloudy,2023-09-02 03:45
Sierra Leone,Freetown,8.49,-13.23,26.0,89,11.2,0.7,10.0,3.7,Partly cloudy,2023-09-01 23:45
Singapore,Singapore,1.29,103.86,25.0,100,3.6,0.0,9.0,16.0,Partly cloudy,2023-09-02 07:30
Slovakia,Bratislava,48.15,17.12,18.0,88,6.1,0.1,10.0,6.4,Clear,2023-09-02 01:30
Slovenia,Ljubljana,46.06,14.51,14.0,100,3.6,0.0,10.0,15.4,Clear,2023-09-02 01:45
Solomon Islands,Honiara,-9.43,159.95,27.8,77,10.8,0.0,10.0,0.6,Partly cloudy,2023-09-02 10:45
Somalia,Mogadishu,2.07,45.37,24.6,84,31.7,0.0,10.0,7.2,Partly cloudy,2023-09-02 02:45
South Africa,Pretoria,-25.75,28.19,18.0,30,9.0,0.0,10.0,23.3,Clear,2023-09-02 01:30
South Korea,Seoul,37.57,127.0,23.0,83,4.0,0.0,10.0,92.9,Sunny,2023-09-02 08:30
Sudan,Juba,12.15,24.45,26.5,60,10.4,0.0,10.0,1.7,Clear,2023-09-02 01:45
Spain,Madrid,40.4,-3.68,23.0,47,3.6,0.8,10.0,3.4,Clear,2023-09-02 01:30
Sri Lanka,Colombo,6.93,79.85,25.0,94,6.8,0.2,10.0,1.4,Partly cloudy,2023-09-02 05:15
Sudan,Khartoum,15.59,32.53,35.1,33,6.1,0.0,10.0,31.7,Clear,2023-09-02 01:45
Suriname,Paramaribo,5.83,-55.17,27.0,84,6.8,0.0,10.0,2.5,Partly cloudy,2023-09-01 20:45
Sweden,Stockholm,59.33,18.05,11.0,100,3.6,0.1,0.2,0.9,Fog,2023-09-02 01:30
Switzerland,Bern,46.92,7.47,14.0,88,4.0,0.0,10.0,15.1,Clear,2023-09-02 01:45
Syria,Damascus,33.5,36.3,22.0,53,20.2,0.0,10.0,14.1,Clear,2023-09-02 02:45
Tajikistan,Dushanbe,38.56,68.77,17.0,68,6.8,0.0,7.0,8.6,Clear,2023-09-02 04:45
Tanzania,Dodoma,-6.18,35.75,19.5,65,19.1,0.0,10.0,2.6,Clear,2023-09-02 02:45
Thailand,Bangkok,13.75,100.52,28.0,74,9.0,0.6,10.0,15.9,Partly cloudy,2023-09-02 06:45
Indonesia,Murong Timor,-7.56,112.27,20.0,85,10.8,0.0,10.0,18.2,Partly cloudy,2023-09-02 06:45
Bulgaria,Lom,43.81,23.24,18.0,54,5.0,0.0,10.0,8.6,Clear,2023-09-02 02:45
Tonga,Nuku`Aloia,-21.13,-175.2,25.0,74,28.1,0.0,10.0,2.6,Partly cloudy,2023-09-02 12:45
Trinidad and Tobago,Port Of Spain,10.65,-61.52,28.0,84,11.2,0.4,10.0,0.7,Partly cloudy,2023-09-01 19:45
Tunisia,Tunis,36.8,10.18,25.0,69,9.0,0.0,10.0,6.4,Clear,2023-09-02 00:45
Turkey,Ankara,39.93,32.86,21.0,64,3.6,0.0,10.0,11.7,Clear,2023-09-02 02:30
Turkmenistan,Ashgabat,37.95,58.38,22.0,53,3.6,0.0,10.0,20.4,Clear,2023-09-02 04:45
Uganda,Kampala,0.32,32.57,19.3,86,3.6,0.0,10.0,38.3,Clear,2023-09-02 02:45
Ukraine,Lviv,49.83,24.0,14.9,71,10.1,0.0,10.0,5.9,Partly cloudy,2023-09-02 02:30
United Arab Emirates,Abu Dhabi,24.47,54.37,34.0,63,11.2,0.0,10.0,43.8,Partly cloudy,2023-09-02 03:30
United Kingdom,London,51.52,-0.11,17.0,94,11.2,0.0,10.0,8.1,Partly cloudy,2023-09-02 00:30
United States of America,Washington Park,46.6,-120.49,24.4,42,9.0,0.0,16.0,18.3,Partly cloudy,2023-09-01 16:45
Uruguay,Montevideo,-34.86,-56.17,18.0,73,11.2,0.0,10.0,22.9,Clear,2023-09-01 20:30
Uzbekistan,Tashkent,41.32,69.25,17.0,52,11.2,0.0,10.0,8.2,Clear,2023-09-02 04:45
Vanuatu,Port Vila,-17.73,168.32,24.7,77,15.8,0.0,10.0,9.0,Partly cloudy,2023-09-02 10:45
Venezuela,Caracas,10.5,-66.92,28.0,74,19.1,0.8,9.0,6.0,Clear,2023-09-01 19:30
Vietnam,Hanoi,21.03,105.85,27.0,89,6.1,0.0,5.0,148.5,Mist,2023-09-02 06:30
Yemen,Sanaa,15.35,44.21,19.0,31,13.7,0.0,10.0,38.1,Clear,2023-09-02 02:45
Zambia,Lusaka,-15.42,28.28,18.6,33,8.6,0.0,10.0,11.7,Clear,2023-09-02 01:45
Zimbabwe,Harare,-17.82,31.04,15.2,29,6.8,0.0,10.0,41.0,Clear,2023-09-02 01:45
Afghanistan,Kabul,34.52,69.18,17.0,27,3.6,0.0,10.0,12.2,Clear,2023-09-03 04:15
Albania,Tirana,41.33,19.82,20.0,88,3.6,0.0,10.0,14.8,Clear,2023-09-03 01:45
Algeria,Algiers,36.76,3.05,27.0,54,16.9,6.4,10.0,12.3,Patchy light rain with thunder,2023-09-03 00:30
Andorra,Andorra La Vella,42.5,1.52,7.2,73,7.2,0.1,10.0,0.6,Patchy rain possible,2023-09-03 01:45
Angola,Luanda,-8.84,13.23,22.0,88,11.2,0.0,10.0,8.3,Partly cloudy,2023-09-03 00:45
Antigua and Barbuda,Saint John's,17.12,-61.85,29.0,75,6.8,0.0,10.0,6.2,Partly cloudy,2023-09-02 19:45
Argentina,Buenos Aires,-34.59,-58.67,11.0,76,19.1,0.1,10.0,5.5,Clear,2023-09-02 20:45
Armenia,Yerevan,40.18,44.51,26.0,39,24.1,0.0,10.0,2.8,Clear,2023-09-03 03:45
Australia,Canberra,-35.28,149.22,9.0,76,9.0,0.0,10.0,1.1,Sunny,2023-09-03 09:45
Austria,Vienna,48.2,16.37,17.0,83,6.1,0.0,10.0,19.0,Clear,2023-09-03 01:45
Azerbaijan,Baku,40.4,49.88,25.0,83,6.8,0.0,10.0,7.0,Partly cloudy,2023-09-03 03:45
Bahamas,Nassau,25.08,-77.35,29.0,66,22.0,0.0,10.0,5.7,Partly cloudy,2023-09-02 19:45
Bahrain,Manama,26.24,50.58,33.0,71,9.0,0.0,10.0,34.6,Clear,2023-09-03 02:45
Bangladesh,Dhaka,23.72,90.41,28.8,80,6.8,0.2,9.0,45.8,Patchy rain possible,2023-09-03 05:45
Barbados,Bridgetown,13.1,-59.62,29.0,79,15.1,0.1,10.0,5.9,Partly cloudy,2023-09-02 19:45
Belarus,Minsk,53.9,27.57,10.0,94,6.8,0.1,6.0,5.8,Clear,2023-09-03 02:45
Belgium,Brussels,50.83,4.33,17.0,94,3.6,0.0,6.0,21.2,Fog,2023-09-03 01:45
Belize,Belmopan,17.25,-88.77,30.0,79,15.1,0.4,10.0,1.0,Partly cloudy,2023-09-02 17:45
Benin,Porto-Novo,6.48,2.62,24.0,94,9.0,8.0,10.0,4.6,Partly cloudy,2023-09-03 00:45
Bhutan,Thimphu,27.48,89.6,10.7,90,6.5,0.3,9.0,9.2,Patchy rain possible,2023-09-03 05:45
Bolivia,Sucre,-19.04,-65.26,20.3,34,15.5,0.0,10.0,2.2,Clear,2023-09-02 19:45
Bosnia and Herzegovina,Sarajevo,43.85,18.38,14.0,100,3.6,0.0,10.0,9.8,Clear,2023-09-03 01:45
Botswana,Gaborone,-24.65,25.91,19.4,21,10.1,0.0,10.0,6.7,Clear,2023-09-03 01:45
Brazil,Bras,-2.08,-58.17,30.7,32,5.8,0.0,10.0,6.2,Clear,2023-09-02 19:45
Brunei Darussalam,Bandar Seri Begawan,4.88,114.93,26.0,94,6.1,0.1,9.0,0.6,Partly cloudy,2023-09-03 07:45
Bulgaria,Sofia,42.68,23.32,17.0,72,3.6,0.0,10.0,10.2,Partly cloudy,2023-09-03 02:45
Burkina Faso,Ouagadougou,12.37,-1.52,23.0,100,6.8,2.8,8.0,53.2,Patchy light rain with thunder,2023-09-02 23:45
Burundi,Bujumbura,-3.38,29.36,23.9,62,4.7,0.0,10.0,42.1,Clear,2023-09-03 01:45
Madagascar,Ivory,-24.37,46.45,20.5,73,8.6,0.0,10.0,0.8,Clear,2023-09-03 02:45
Cape Verde,Praia,14.93,-23.51,27.0,84,19.1,0.0,10.0,2.1,Clear,2023-09-02 22:45
Cambodia,Phnom Penh,11.55,104.92,27.0,94,4.0,0.0,9.0,3.2,Partly cloudy,2023-09-03 06:45
Cameroon,Bafoussam,5.47,10.42,18.1,98,6.1,1.1,10.0,7.8,Light rain shower,2023-09-03 00:45
Canada,Ottawa,45.42,-75.7,22.0,73,16.9,0.0,24.0,8.9,Partly cloudy,2023-09-02 19:45
Central African Republic,Bangui,4.37,18.58,25.0,94,6.1,1.4,10.0,16.7,Moderate or heavy rain with thunder,2023-09-03 00:45
Chad,N'djamena,12.11,15.05,27.0,89,3.6,0.0,10.0,27.0,Clear,2023-09-03 00:45
Chile,Santiago,-33.45,-70.67,12.0,82,6.8,0.3,10.0,98.0,Partly cloudy,2023-09-02 19:45
China,Beijing,39.93,116.39,22.0,100,6.8,0.4,8.0,206.8,Sunny,2023-09-03 07:45
Bulgaria,Bogot,43.32,24.7,19.2,48,5.4,0.0,10.0,11.1,Clear,2023-09-03 02:45
Comoros,Moroni,-11.7,43.24,20.7,80,7.6,0.0,10.0,2.2,Clear,2023-09-03 02:45
Congo,Brazzaville,-4.26,15.28,22.0,78,6.8,0.0,8.0,6.4,Clear,2023-09-03 00:45
Costa Rica,San Juan,9.97,-84.08,22.0,78,22.0,0.5,10.0,7.3,Light rain,2023-09-02 17:45
Croatia,Zagreb,45.8,16.0,17.0,88,6.1,0.0,10.0,31.2,Clear,2023-09-03 01:45
Cuba,Havana,23.13,-82.36,30.0,75,16.9,0.0,9.0,7.1,Partly cloudy,2023-09-02 19:45
Cyprus,Nicosia,35.17,33.37,25.0,79,9.0,0.0,10.0,15.7,Partly cloudy,2023-09-03 02:45
Czech Republic,Prague,50.08,14.47,16.0,88,3.6,0.9,10.0,20.3,Partly cloudy,2023-09-03 01:45
Democratic Republic of Congo,Kinshasa,-4.3,15.3,22.0,78,6.8,0.0,8.0,6.4,Clear,2023-09-03 00:45
Denmark,Copenhagen,55.67,12.58,15.0,77,15.1,0.0,10.0,1.8,Partly cloudy,2023-09-03 01:45
Djibouti,Djibouti,11.6,43.15,31.7,60,3.6,0.0,10.0,24.3,Clear,2023-09-03 02:45
Dominica,Roseau,15.3,-61.4,29.0,84,6.8,0.2,10.0,5.1,Partly cloudy,2023-09-02 19:45
Dominican Republic,Santo Domingo,18.47,-69.9,28.0,89,6.8,0.0,10.0,9.8,Partly cloudy,2023-09-02 19:45
Ecuador,Quito,-0.22,-78.5,11.4,88,10.4,2.9,7.0,42.4,Moderate or heavy rain shower,2023-09-02 18:45
Egypt,Cairo,30.05,31.25,26.0,70,9.0,0.0,6.0,12.0,Clear,2023-09-03 02:45
El Salvador,San Salvador,13.71,-89.2,28.0,74,9.0,0.2,10.0,12.8,Partly cloudy,2023-09-02 17:45
Equatorial Guinea,Malabo,3.75,8.78,24.3,90,11.9,3.7,7.0,2.6,Moderate or heavy rain shower,2023-09-03 00:45
Eritrea,Asmara,15.33,38.93,18.4,62,3.6,0.0,10.0,26.5,Clear,2023-09-03 02:45
Estonia,Tallinn,59.43,24.73,12.0,94,15.1,0.0,10.0,5.0,Partly cloudy,2023-09-03 02:45
Swaziland,Mbabane,-26.32,31.13,15.5,47,3.6,0.0,10.0,18.0,Clear,2023-09-03 01:45
Ethiopia,Addis Ababa,9.03,38.7,12.0,80,5.4,0.0,10.0,74.1,Clear,2023-09-03 02:45
Fiji Islands,Suva,-18.13,178.42,27.0,74,9.0,0.0,10.0,3.0,Partly cloudy,2023-09-03 11:45
Finland,Helsinki,60.18,24.93,13.0,94,9.0,0.2,10.0,5.0,Clear,2023-09-03 02:45
France,Paris,48.87,2.33,21.0,78,9.0,0.0,10.0,7.3,Clear,2023-09-03 01:45
Gabon,Libreville,0.38,9.45,26.0,84,15.1,0.0,10.0,7.7,Partly cloudy,2023-09-03 00:45
Gambia,Banjul,13.45,-16.58,27.0,94,3.6,0.1,10.0,3.9,Partly cloudy,2023-09-02 23:45
Georgia,Tbilisi,41.73,44.79,21.0,88,3.6,0.2,10.0,2.4,Moderate or heavy rain with thunder,2023-09-03 03:45
Germany,Berlin,52.52,13.4,15.0,88,4.0,0.0,10.0,9.4,Clear,2023-09-03 01:45
Ghana,Accra,5.55,-0.22,24.0,100,15.1,0.6,10.0,12.1,Partly cloudy,2023-09-02 23:45
Greece,Athens,37.98,23.72,27.0,39,16.9,0.0,10.0,19.9,Clear,2023-09-03 02:45
Grenada,Saint George's,12.05,-61.75,29.0,79,22.0,0.5,10.0,2.1,Partly cloudy,2023-09-02 19:45
Guatemala,Guatemala City,14.62,-90.53,19.0,94,6.8,1.1,10.0,6.9,Partly cloudy,2023-09-02 17:45
Guinea,Conakry,9.51,-13.71,27.0,84,3.6,0.1,10.0,1.4,Partly cloudy,2023-09-02 23:45
Guinea-Bissau,Bissau,11.85,-15.58,27.0,94,3.6,0.0,9.0,1.9,Partly cloudy,2023-09-02 23:45
Guyana,Georgetown,6.8,-58.17,28.0,79,11.2,0.0,10.0,3.2,Partly cloudy,2023-09-02 19:45
Haiti,Port-Au-Prince,18.54,-72.34,30.0,70,6.8,0.0,9.0,39.8,Partly cloudy,2023-09-02 19:45
Vatican City,Vatican City,41.9,12.45,21.0,73,6.8,0.0,10.0,14.8,Clear,2023-09-03 01:45
Honduras,Tegucigalpa,14.1,-87.22,28.0,48,11.2,0.0,10.0,1.0,Partly cloudy,2023-09-02 17:45
Hungary,Budapest,47.5,19.08,16.0,94,4.0,0.0,10.0,13.9,Clear,2023-09-03 01:45
Iceland,Hella,63.83,-20.4,9.4,78,46.1,0.2,9.0,4.8,Patchy rain possible,2023-09-02 23:45
India,New Delhi,28.6,77.2,28.0,84,6.8,0.0,3.5,13.4,Mist,2023-09-03 05:15
Indonesia,Jakarta,-6.21,106.85,25.0,69,13.0,0.0,7.0,320.6,Partly cloudy,2023-09-03 06:45
Iran,Tehran,35.73,51.33,29.0,18,11.2,0.0,10.0,37.1,Partly cloudy,2023-09-03 03:15
Iraq,Baghdad,33.34,44.39,31.0,22,6.8,0.0,10.0,25.1,Clear,2023-09-03 02:45
Ireland,Dublin,53.33,-6.25,13.0,100,9.0,0.0,10.0,3.4,Partly cloudy,2023-09-03 00:45
Israel,Jerusalem,31.78,35.23,26.0,74,9.0,0.0,10.0,12.4,Partly cloudy,2023-09-03 02:45
Italy,Rome,41.9,12.48,21.0,73,6.8,0.0,10.0,14.8,Clear,2023-09-03 01:45
Jamaica,Norman Gardens,17.97,-76.75,32.0,75,20.2,0.0,10.0,15.1,Partly cloudy,2023-09-02 18:45
Japan,Tokyo,35.69,139.69,30.0,70,9.0,0.0,10.0,10.8,Partly cloudy,2023-09-03 08:45
Jordan,Amman,31.95,35.93,21.0,73,9.0,0.0,7.0,15.5,Clear,2023-09-03 02:45
Kazakhstan,Astana,51.18,71.43,11.0,94,19.1,0.1,10.0,1.9,Partly cloudy,2023-09-03 05:45
Kenya,Nairobi,-1.28,36.82,19.0,68,3.6,0.0,10.0,11.8,Partly cloudy,2023-09-03 02:45
Kiribati,Tarawa,-0.88,169.53,29.0,75,18.4,0.1,10.0,0.7,Patchy rain possible,2023-09-03 11:45
Kuwait,Kuwait City,29.37,47.96,34.4,27,13.0,0.0,10.0,36.0,Clear,2023-09-03 02:45
Kyrghyzstan,Bishkek,42.87,74.6,15.2,37,5.4,0.0,10.0,10.1,Clear,2023-09-03 05:45
Indonesia,Laos,-8.18,114.32,19.2,90,3.6,0.0,10.0,15.7,Sunny,2023-09-03 06:45
Latvia,Riga,56.95,24.1,13.0,94,6.8,0.0,10.0,7.7,Clear,2023-09-03 02:45
Lebanon,Beirut,33.87,35.51,27.0,70,9.0,0.0,8.0,12.5,Clear,2023-09-03 02:45
Lesotho,Maseru,-29.32,27.48,12.5,32,6.5,0.0,10.0,21.8,Clear,2023-09-03 01:45
Liberia,Monrovia,6.31,-10.8,24.0,94,3.6,0.6,8.0,5.4,Light rain,2023-09-02 23:45
Thailand,Nan,18.78,100.78,23.0,100,4.0,0.0,10.0,6.7,Sunny,2023-09-03 06:45
Liechtenstein,Vaduz,47.13,9.52,15.0,100,3.6,0.0,10.0,20.6,Clear,2023-09-03 01:45
Lithuania,Vilnius,54.68,25.32,11.0,100,6.8,0.0,0.2,6.0,Fog,2023-09-03 02:45
Luxembourg,Luxembourg,49.61,6.13,18.0,88,16.9,0.0,10.0,3.5,Clear,2023-09-03 01:45
Madagascar,Antananarivo,-18.92,47.52,13.0,88,16.9,0.0,10.0,4.6,Partly cloudy,2023-09-03 02:45
Malawi,Lilongwe,-13.98,33.78,19.5,46,4.7,0.0,10.0,2.7,Clear,2023-09-03 01:45
Malaysia,Kuala Lumpur,3.17,101.7,26.0,89,3.6,0.3,9.0,190.3,Partly cloudy,2023-09-03 07:45
Maldives,Farukolhufunadhoo,6.15,73.27,26.6,81,31.0,0.2,10.0,1.3,Light rain shower,2023-09-03 04:45
Mali,Bamako,12.65,-8.0,23.0,100,6.8,3.2,10.0,23.0,Partly cloudy,2023-09-02 23:45
Malta,Valletta,35.9,14.51,23.0,83,6.8,0.0,10.0,4.6,Clear,2023-09-03 01:45
Marshall Islands,Majuro,7.1,171.38,27.7,74,6.5,0.4,10.0,0.5,Light rain shower,2023-09-03 11:45
Mauritania,Nouakchott,18.09,-15.98,28.1,75,26.6,0.0,10.0,32.7,Clear,2023-09-02 23:45
Mauritius,Port Louis,-20.16,57.5,23.0,78,25.9,0.0,10.0,6.3,Overcast,2023-09-03 03:45
Mexico,Mexico City,19.43,-99.13,26.0,34,19.1,0.0,13.0,9.2,Light rain,2023-09-02 17:45
Micronesia,Palikir,6.92,158.15,29.0,84,6.8,0.0,24.0,0.5,Overcast,2023-09-03 10:45
Russia,Chi-Chi-Erh,51.7,94.45,12.6,73,5.4,0.0,10.0,0.5,Partly cloudy,2023-09-03 06:45
Monaco,Monaco,43.73,7.42,22.0,61,15.1,0.0,10.0,5.1,Clear,2023-09-03 01:45
Mongolia,Ulaanbaatar,47.92,106.92,9.0,93,3.6,0.0,10.0,11.6,Partly cloudy,2023-09-03 07:45
Montenegro,Podgorica,42.44,19.26,21.0,78,3.6,0.0,10.0,8.0,Clear,2023-09-03 01:45
Morocco,Rabat,34.03,-6.84,21.0,78,6.1,0.4,5.0,0.9,Partly cloudy,2023-09-03 00:45
Mozambique,Maputo,-25.97,32.59,20.0,94,6.1,0.0,10.0,9.8,Clear,2023-09-03 01:45
Myanmar,Pathein,16.78,94.73,25.7,93,6.1,0.0,10.0,4.2,Partly cloudy,2023-09-03 06:15
Namibia,Windhoek,-22.57,17.08,15.0,17,6.8,0.0,10.0,7.5,Clear,2023-09-03 01:45
Turkey,Yaren,39.55,27.62,22.0,83,16.9,0.0,10.0,6.7,Partly cloudy,2023-09-03 02:45
Nepal,Kathmandu,27.72,85.32,22.0,88,6.8,0.0,7.0,52.8,Partly cloudy,2023-09-03 05:30
Netherlands,Amsterdam,52.37,4.89,14.0,94,6.8,0.0,10.0,6.2,Fog,2023-09-03 01:45
New Zealand,Wellington,-41.3,174.78,14.0,67,11.2,0.0,10.0,2.0,Sunny,2023-09-03 11:45
Nicaragua,Managua,12.15,-86.27,28.6,70,15.1,0.1,9.0,1.5,Patchy light rain with thunder,2023-09-02 17:45
Niger,Niamey,13.52,2.12,24.0,100,4.0,0.0,8.0,7.1,Partly cloudy,2023-09-03 00:45
Nigeria,Abuja,9.18,7.18,24.0,100,9.0,0.0,10.0,3.5,Moderate or heavy rain with thunder,2023-09-03 00:45
North Korea,Pyongyang,39.02,125.75,20.6,73,6.1,0.0,10.0,47.8,Partly cloudy,2023-09-03 08:45
Macedonia,Skopje,42.0,21.43,18.0,68,4.0,0.0,10.0,15.2,Clear,2023-09-03 01:45
Norway,Oslo,59.92,10.75,14.0,94,59.0,0.0,10.0,3.5,Light rain,2023-09-03 01:45
Oman,Muscat,23.61,58.59,30.0,79,6.1,0.0,10.0,26.3,Clear,2023-09-03 03:45
Pakistan,Islamabad,33.7,73.17,26.4,60,9.0,0.0,10.0,72.6,Clear,2023-09-03 04:45
Palau,Adkip,7.36,134.51,30.0,75,15.1,0.0,21.0,3.1,Partly cloudy,2023-09-03 08:45
Bolivia,National,-11.18,-67.08,31.0,39,4.0,0.0,10.0,1.0,Clear,2023-09-02 19:45
Panama,Panama City,8.97,-79.53,27.0,84,6.8,1.4,10.0,2.7,Partly cloudy,2023-09-02 18:45
Papua New Guinea,Port Moresby,-9.46,147.19,25.7,63,18.7,0.0,10.0,2.9,Sunny,2023-09-03 09:45
Paraguay,Carreria,-21.55,-58.12,37.1,26,16.6,0.0,10.0,1.2,Clear,2023-09-02 19:45
Peru,Lima,-12.05,-77.05,18.7,77,16.2,0.0,10.0,9.8,Partly cloudy,2023-09-02 18:45
Philippines,Manila,14.6,120.98,27.0,100,9.0,1.0,8.0,4.2,Light rain,2023-09-03 07:45
Poland,Warsaw,52.25,21.0,13.0,94,3.6,0.0,10.0,12.5,Clear,2023-09-03 01:45
Portugal,Lisbon,38.72,-9.13,18.0,77,9.0,0.0,10.0,6.4,Partly cloudy,2023-09-03 00:45
Qatar,Doha,25.29,51.53,33.0,67,3.6,0.0,10.0,79.0,Clear,2023-09-03 02:45
Romania,Bucharest,44.43,26.1,19.0,73,3.6,0.0,10.0,16.2,Clear,2023-09-03 02:45
Russia,Moscow,55.75,37.62,14.0,94,6.8,0.0,10.0,6.5,Clear,2023-09-03 02:45
Rwanda,Kigali,-1.95,30.06,19.0,88,6.8,0.0,10.0,22.4,Partly cloudy,2023-09-03 01:45
Saint Kitts and Nevis,Basseterre,17.3,-62.72,29.0,75,11.2,0.2,10.0,5.2,Partly cloudy,2023-09-02 19:45
Saint Lucia,Castries,14.0,-61.0,28.0,79,9.0,0.1,10.0,6.2,Partly cloudy,2023-09-02 19:45
Saint Vincent and the Grenadines,Kingstown,13.13,-61.22,28.9,76,27.4,0.1,10.0,4.3,Patchy rain possible,2023-09-02 19:45
Samoa,Apia,-13.83,-171.73,32.0,67,25.9,0.1,10.0,4.2,Partly cloudy,2023-09-03 12:45
San Marino,San Marino,43.93,12.45,20.0,88,4.0,0.0,10.0,9.0,Clear,2023-09-03 01:45
Belgium,'S-Gravenwezel,51.27,4.55,16.0,94,6.8,0.0,8.0,17.7,Clear,2023-09-03 01:45
Saudi Arabia,Riyadh,24.64,46.77,29.0,15,6.8,0.0,10.0,18.6,Clear,2023-09-03 02:45
Senegal,Dakar,14.67,-17.44,28.0,89,6.8,0.0,10.0,5.0,Partly cloudy,2023-09-02 23:45
Serbia,Belgrade,44.8,20.47,19.0,73,6.1,0.0,10.0,12.6,Clear,2023-09-03 01:45
Seychelles Islands,Victoria,-4.62,55.45,26.0,84,19.1,0.5,10.0,2.3,Light rain,2023-09-03 03:45
Sierra Leone,Freetown,8.49,-13.23,26.0,89,19.1,0.2,10.0,1.5,Partly cloudy,2023-09-02 23:45
Singapore,Singapore,1.29,103.86,28.0,74,11.2,0.0,10.0,15.9,Partly cloudy,2023-09-03 07:45
Slovakia,Bratislava,48.15,17.12,18.0,94,4.0,0.6,10.0,12.8,Clear,2023-09-03 01:45
Slovenia,Ljubljana,46.06,14.51,16.0,94,4.0,0.0,10.0,17.2,Clear,2023-09-03 01:45
Solomon Islands,Honiara,-9.43,159.95,29.2,67,15.1,0.0,10.0,2.1,Sunny,2023-09-03 10:45
Somalia,Mogadishu,2.07,45.37,24.5,88,26.3,0.0,10.0,3.4,Partly cloudy,2023-09-03 02:45
South Africa,Pretoria,-25.75,28.19,18.0,34,19.1,0.0,10.0,13.1,Clear,2023-09-03 01:45
South Korea,Seoul,37.57,127.0,24.0,89,13.0,0.0,9.0,65.2,Overcast,2023-09-03 08:45
Sudan,Juba,12.15,24.45,26.7,58,8.6,0.0,10.0,3.2,Clear,2023-09-03 01:45
Spain,Madrid,40.4,-3.68,16.0,88,6.1,2.3,8.0,2.1,Partly cloudy,2023-09-03 01:45
Sri Lanka,Colombo,6.93,79.85,25.0,94,11.2,0.0,10.0,2.0,Partly cloudy,2023-09-03 05:15
Sudan,Khartoum,15.59,32.53,32.0,40,20.5,0.0,9.0,17.4,Thundery outbreaks possible,2023-09-03 01:45
Suriname,Paramaribo,5.83,-55.17,29.0,70,4.0,0.0,10.0,2.1,Clear,2023-09-02 20:45
Sweden,Stockholm,59.33,18.05,11.0,100,9.0,0.0,10.0,0.5,Clear,2023-09-03 01:45
Switzerland,Bern,46.92,7.47,14.0,94,3.6,0.0,10.0,13.5,Clear,2023-09-03 01:45
Syria,Damascus,33.5,36.3,21.0,78,29.9,0.0,10.0,13.4,Clear,2023-09-03 02:45
Tajikistan,Dushanbe,38.56,68.77,17.0,63,3.6,0.0,8.0,8.8,Clear,2023-09-03 04:45
Tanzania,Dodoma,-6.18,35.75,19.2,62,18.0,0.0,10.0,3.8,Clear,2023-09-03 02:45
Thailand,Bangkok,13.75,100.52,28.0,74,13.0,0.2,10.0,15.8,Partly cloudy,2023-09-03 06:45
Indonesia,Murong Timor,-7.56,112.27,19.2,86,7.6,0.0,10.0,16.2,Sunny,2023-09-03 06:45
Bulgaria,Lom,43.81,23.24,19.5,51,5.8,0.0,10.0,13.6,Clear,2023-09-03 02:45
Tonga,Nuku`Aloia,-21.13,-175.2,27.0,74,19.1,0.0,10.0,2.0,Partly cloudy,2023-09-03 12:45
Trinidad and Tobago,Port Of Spain,10.65,-61.52,28.0,89,6.8,0.0,10.0,2.0,Partly cloudy,2023-09-02 19:45
Tunisia,Tunis,36.8,10.18,26.0,79,15.1,0.0,10.0,6.2,Partly cloudy,2023-09-03 00:45
Turkey,Ankara,39.93,32.86,21.0,73,3.6,1.6,10.0,2.7,Moderate or heavy rain with thunder,2023-09-03 02:45
Turkmenistan,Ashgabat,37.95,58.38,25.0,36,6.8,0.0,10.0,17.7,Clear,2023-09-03 04:45
Tuvalu,Funafuti,-8.52,179.22,32.0,80,29.9,0.2,10.0,1.4,Partly cloudy,2023-09-03 11:45
Uganda,Kampala,0.32,32.57,20.0,82,3.6,0.0,10.0,23.8,Clear,2023-09-03 02:45
Ukraine,Lviv,49.83,24.0,14.5,89,3.6,0.0,10.0,11.9,Partly cloudy,2023-09-03 02:45
United Arab Emirates,Abu Dhabi,24.47,54.37,33.0,80,6.8,0.0,10.0,30.2,Clear,2023-09-03 03:45
United Kingdom,London,51.52,-0.11,16.0,88,6.8,0.0,10.0,7.7,Clear,2023-09-03 00:45
United States of America,Washington Park,46.6,-120.49,30.0,29,16.9,0.0,16.0,2.1,Sunny,2023-09-02 16:45
Uruguay,Montevideo,-34.86,-56.17,12.0,67,29.9,0.0,10.0,12.2,Clear,2023-09-02 20:45
Uzbekistan,Tashkent,41.32,69.25,17.0,55,11.2,0.0,10.0,7.4,Clear,2023-09-03 04:45
Vanuatu,Port Vila,-17.73,168.32,27.0,74,15.1,0.2,10.0,2.0,Partly cloudy,2023-09-03 10:45
Venezuela,Caracas,10.5,-66.92,28.0,70,4.0,0.6,10.0,8.6,Partly cloudy,2023-09-02 19:45
Vietnam,Hanoi,21.03,105.85,28.0,84,3.6,0.1,10.0,142.1,Sunny,2023-09-03 06:45
Yemen,Sanaa,15.35,44.21,19.4,34,7.9,0.0,10.0,50.7,Clear,2023-09-03 02:45
Zambia,Lusaka,-15.42,28.28,19.6,27,9.4,0.0,10.0,8.9,Clear,2023-09-03 01:45
Zimbabwe,Harare,-17.82,31.04,17.2,39,16.6,0.0,10.0,7.8,Clear,2023-09-03 01:45
Afghanistan,Kabul,34.52,69.18,15.6,23,3.6,0.1,10.0,6.4,Patchy rain possible,2023-09-04 04:00
Albania,Tirana,41.33,19.82,21.0,100,4.0,0.0,10.0,15.5,Partly cloudy,2023-09-04 01:30
Algeria,Algiers,36.76,3.05,36.0,29,13.0,0.0,3.5,144.4,Cloudy,2023-09-04 00:30
Andorra,Andorra La Vella,42.5,1.52,14.8,61,7.6,0.0,10.0,8.2,Clear,2023-09-04 01:30
Angola,Luanda,-8.84,13.23,21.0,94,6.8,0.0,8.0,6.7,Partly cloudy,2023-09-04 00:30
Antigua and Barbuda,Saint John's,17.12,-61.85,28.0,74,6.8,0.0,10.0,2.4,Partly cloudy,2023-09-03 19:30
Argentina,Buenos Aires,-34.59,-58.67,11.0,94,15.1,0.2,10.0,1.9,Overcast,2023-09-03 20:30
Armenia,Yerevan,40.18,44.51,25.0,47,11.2,0.0,10.0,1.1,Clear,2023-09-04 03:30
Australia,Canberra,-35.28,149.22,9.0,87,9.0,0.0,10.0,12.0,Overcast,2023-09-04 09:30
Austria,Vienna,48.2,16.37,17.0,77,13.0,0.0,10.0,5.4,Partly cloudy,2023-09-04 01:30
Azerbaijan,Baku,40.4,49.88,23.0,69,11.2,0.0,10.0,7.3,Clear,2023-09-04 03:30
Bahamas,Nassau,25.08,-77.35,29.0,66,22.0,0.0,10.0,3.6,Partly cloudy,2023-09-03 19:30
Bahrain,Manama,26.24,50.58,33.0,71,6.8,0.0,8.0,38.4,Clear,2023-09-04 02:30
Bangladesh,Dhaka,23.72,90.41,29.7,74,7.6,0.2,10.0,64.6,Light rain shower,2023-09-04 05:30
